[
  {
    "model": "stores.store",
    "pk": 1,
    "fields": {
      "name": "빵굽는마을",
      "address": "부산광역시 북구 팽나무로 2 (구포동)",
      "latitude": "35.2048390151463",
      "longitude": "129.004551558675",
      "category": "PASTRY",
      "business_hours": "10:30 ~ 22:00",
      "contact": "051-334-9991",
      "description": "",
      "avg_rating": 0.0,
      "created_at": "2024-01-01T00:00:00Z"
    }
  },
  {
    "model": "stores.store",
    "pk": 2,
    "fields": {
      "name": "규문당과자점",
      "address": "부산광역시 북구 덕천로 306, 가동 (만덕동, 1층102호,지하)",
      "latitude": "35.209282137425",
      "longitude": "129.037310085335",
      "category": "ETC",
      "business_hours": "10:30 ~ 22:00",
      "contact": "051-336-7386",
      "description": "",
      "avg_rating": 0.0,
      "created_at": "2024-01-01T00:00:00Z"
    }
  },
  {
    "model": "stores.store",
    "pk": 3,
    "fields": {
      "name": "드레곤베이커리",
      "address": "부산광역시 북구 만덕대로 88 (덕천동)",
      "latitude": "35.2122188617387",
      "longitude": "129.014509699086",
      "category": "PASTRY",
      "business_hours": "10:30 ~ 22:00",
      "contact": "051-338-5673",
      "description": "",
      "avg_rating": 0.0,
      "created_at": "2024-01-01T00:00:00Z"
    }
  },
  {
    "model": "stores.store",
    "pk": 4,
    "fields": {
      "name": "하베스트베이커리",
      "address": "부산광역시 북구 효열로 136 (금곡동)",
      "latitude": "35.2580188867899",
      "longitude": "129.014998027059",
      "category": "PASTRY",
      "business_hours": "10:30 ~ 22:00",
      "contact": "051-362-3131",
      "description": "",
      "avg_rating": 0.0,
      "created_at": "2024-01-01T00:00:00Z"
    }
  },
  {
    "model": "stores.store",
    "pk": 5,
    "fields": {
      "name": "베이글스",
      "address": "부산광역시 북구 효열로 76-1, 103호 (금곡동, 주공아파트4단지상가)",
      "latitude": "35.2527872557815",
      "longitude": "129.014238020527",
      "category": "ETC",
      "business_hours": "10:30 ~ 22:00",
      "contact": "051-361-1929",
      "description": "",
      "avg_rating": 0.0,
      "created_at": "2024-01-01T00:00:00Z"
    }
  },
  {
    "model": "stores.store",
    "pk": 6,
    "fields": {
      "name": "슬준베이커리",
      "address": "부산광역시 북구 대천천길 15 (화명동)",
      "latitude": "35.2406335041413",
      "longitude": "129.014898140241",
      "category": "PASTRY",
      "business_hours": "10:30 ~ 22:00",
      "contact": "",
      "description": "",
      "avg_rating": 0.0,
      "created_at": "2024-01-01T00:00:00Z"
    }
  },
  {
    "model": "stores.store",
    "pk": 7,
    "fields": {
      "name": "마들렌과자점",
      "address": "부산광역시 북구 양달로8번길 12 (화명동)",
      "latitude": "35.2411486091807",
      "longitude": "129.01486013829",
      "category": "ETC",
      "business_hours": "10:30 ~ 22:00",
      "contact": "051-361-0065",
      "description": "",
      "avg_rating": 0.0,
      "created_at": "2024-01-01T00:00:00Z"
    }
  },
  {
    "model": "stores.store",
    "pk": 8,
    "fields": {
      "name": "브레드베이커리",
      "address": "부산광역시 북구 구포시장8길 3 (구포동)",
      "latitude": "35.2064997539693",
      "longitude": "129.003164805541",
      "category": "PASTRY",
      "business_hours": "10:30 ~ 22:00",
      "contact": "051-338-9091",
      "description": "",
      "avg_rating": 0.0,
      "created_at": "2024-01-01T00:00:00Z"
    }
  },
  {
    "model": "stores.store",
    "pk": 9,
    "fields": {
      "name": "쿠켄하임과자점",
      "address": "부산광역시 북구 덕천로234번길 13 (만덕동)",
      "latitude": "35.2099335606323",
      "longitude": "129.029464387495",
      "category": "ETC",
      "business_hours": "10:30 ~ 22:00",
      "contact": "051-337-9552",
      "description": "",
      "avg_rating": 0.0,
      "created_at": "2024-01-01T00:00:00Z"
    }
  },
  {
    "model": "stores.store",
    "pk": 10,
    "fields": {
      "name": "파리바게트",
      "address": "부산광역시 북구 덕천로 239-1, 1층 (만덕동)",
      "latitude": "35.2108549795189",
      "longitude": "129.030480928155",
      "category": "ETC",
      "business_hours": "10:30 ~ 22:00",
      "contact": "051-338-4784",
      "description": "",
      "avg_rating": 0.0,
      "created_at": "2024-01-01T00:00:00Z"
    }
  },
  {
    "model": "stores.store",
    "pk": 11,
    "fields": {
      "name": "빵굴레",
      "address": "부산광역시 북구 만덕1로 90, 1층 (만덕동)",
      "latitude": "35.2139591177732",
      "longitude": "129.02777739872",
      "category": "PASTRY",
      "business_hours": "10:30 ~ 22:00",
      "contact": "051-331-2070",
      "description": "",
      "avg_rating": 0.0,
      "created_at": "2024-01-01T00:00:00Z"
    }
  },
  {
    "model": "stores.store",
    "pk": 12,
    "fields": {
      "name": "파네토네",
      "address": "부산광역시 북구 금곡대로 322 (화명동)",
      "latitude": "35.2370507861917",
      "longitude": "129.014171448519",
      "category": "ETC",
      "business_hours": "10:30 ~ 22:00",
      "contact": "051-333-3384",
      "description": "",
      "avg_rating": 0.0,
      "created_at": "2024-01-01T00:00:00Z"
    }
  },
  {
    "model": "stores.store",
    "pk": 13,
    "fields": {
      "name": "파리바게트화명수정점",
      "address": "부산광역시 북구 학사로17번길 4 (화명동)",
      "latitude": "35.2243051031105",
      "longitude": "129.007208862428",
      "category": "ETC",
      "business_hours": "10:30 ~ 22:00",
      "contact": "051-332-4468",
      "description": "",
      "avg_rating": 0.0,
      "created_at": "2024-01-01T00:00:00Z"
    }
  },
  {
    "model": "stores.store",
    "pk": 14,
    "fields": {
      "name": "서무결베이커리",
      "address": "부산광역시 북구 백양대로 1017 (구포동,한성빌딩)",
      "latitude": "35.1967281625749",
      "longitude": "128.994545412135",
      "category": "PASTRY",
      "business_hours": "10:30 ~ 22:00",
      "contact": "051-341-8018",
      "description": "",
      "avg_rating": 0.0,
      "created_at": "2024-01-01T00:00:00Z"
    }
  },
  {
    "model": "stores.store",
    "pk": 15,
    "fields": {
      "name": "뚜레쥬르부산덕천로터리점",
      "address": "부산광역시 북구 백양대로 1204 (덕천동)",
      "latitude": "35.2098912522124",
      "longitude": "129.005860647691",
      "category": "ETC",
      "business_hours": "10:30 ~ 22:00",
      "contact": "051-331-8228",
      "description": "",
      "avg_rating": 0.0,
      "created_at": "2024-01-01T00:00:00Z"
    }
  },
  {
    "model": "stores.store",
    "pk": 16,
    "fields": {
      "name": "파리바게뜨부산덕천점",
      "address": "부산광역시 북구 만덕대로 16, 1층 (덕천동)",
      "latitude": "35.2102376263222",
      "longitude": "129.006868369367",
      "category": "ETC",
      "business_hours": "10:30 ~ 22:00",
      "contact": "051-335-8215",
      "description": "",
      "avg_rating": 0.0,
      "created_at": "2024-01-01T00:00:00Z"
    }
  },
  {
    "model": "stores.store",
    "pk": 17,
    "fields": {
      "name": "르츠과자점",
      "address": "부산광역시 북구 낙동북로 736, 101호 (구포동, 유림노르웨이숲상가)",
      "latitude": "35.1970463387625",
      "longitude": "129.002194743512",
      "category": "ETC",
      "business_hours": "10:30 ~ 22:00",
      "contact": "051-334-5344",
      "description": "",
      "avg_rating": 0.0,
      "created_at": "2024-01-01T00:00:00Z"
    }
  },
  {
    "model": "stores.store",
    "pk": 18,
    "fields": {
      "name": "파티쉐 안동현",
      "address": "부산광역시 북구 금곡대로303번길 22, 105호 (화명동, 정능빌딩)",
      "latitude": "35.2357333783758",
      "longitude": "129.012649816552",
      "category": "ETC",
      "business_hours": "10:30 ~ 22:00",
      "contact": "051-342-1719",
      "description": "",
      "avg_rating": 0.0,
      "created_at": "2024-01-01T00:00:00Z"
    }
  },
  {
    "model": "stores.store",
    "pk": 19,
    "fields": {
      "name": "떡보의하루덕천점",
      "address": "부산광역시 북구 만덕대로 68 (덕천동)",
      "latitude": "35.2115420302652",
      "longitude": "129.012319298641",
      "category": "ETC",
      "business_hours": "10:30 ~ 22:00",
      "contact": "051-335-8910",
      "description": "",
      "avg_rating": 0.0,
      "created_at": "2024-01-01T00:00:00Z"
    }
  },
  {
    "model": "stores.store",
    "pk": 20,
    "fields": {
      "name": "떡파는사람들화명점",
      "address": "부산광역시 북구 금곡대로 216 (화명동)",
      "latitude": "35.2277161350845",
      "longitude": "129.012035717283",
      "category": "ETC",
      "business_hours": "10:30 ~ 22:00",
      "contact": "051-336-3232",
      "description": "",
      "avg_rating": 0.0,
      "created_at": "2024-01-01T00:00:00Z"
    }
  },
  {
    "model": "stores.store",
    "pk": 21,
    "fields": {
      "name": "파리바게트구남역점",
      "address": "부산광역시 북구 백양대로 1013-1 (구포동)",
      "latitude": "35.1964340108074",
      "longitude": "128.994365529211",
      "category": "ETC",
      "business_hours": "10:30 ~ 22:00",
      "contact": "051-333-8280",
      "description": "",
      "avg_rating": 0.0,
      "created_at": "2024-01-01T00:00:00Z"
    }
  },
  {
    "model": "stores.store",
    "pk": 22,
    "fields": {
      "name": "파리바게뜨(만덕삼성점)",
      "address": "부산광역시 북구 만덕2로 42 (만덕동)",
      "latitude": "35.2098167098758",
      "longitude": "129.037438296213",
      "category": "ETC",
      "business_hours": "10:30 ~ 22:00",
      "contact": "051-336-8212",
      "description": "",
      "avg_rating": 0.0,
      "created_at": "2024-01-01T00:00:00Z"
    }
  },
  {
    "model": "stores.store",
    "pk": 23,
    "fields": {
      "name": "코코호도화명점",
      "address": "부산광역시 북구 화명신도시로 115 (화명동,성문타워 102호)",
      "latitude": "35.2344024913289",
      "longitude": "129.010441435269",
      "category": "ETC",
      "business_hours": "10:30 ~ 22:00",
      "contact": "051-362-5592",
      "description": "",
      "avg_rating": 0.0,
      "created_at": "2024-01-01T00:00:00Z"
    }
  },
  {
    "model": "stores.store",
    "pk": 24,
    "fields": {
      "name": "파리바게트",
      "address": "부산광역시 북구 금곡대로 218-1 (화명동)",
      "latitude": "35.2278579464727",
      "longitude": "129.012173097169",
      "category": "ETC",
      "business_hours": "10:30 ~ 22:00",
      "contact": "051-363-0425",
      "description": "",
      "avg_rating": 0.0,
      "created_at": "2024-01-01T00:00:00Z"
    }
  },
  {
    "model": "stores.store",
    "pk": 25,
    "fields": {
      "name": "쥬벨베이커리",
      "address": "부산광역시 북구 덕천로 188, 202동 102호 (만덕동, 지에스리테일만덕점)",
      "latitude": "35.2109128711899",
      "longitude": "129.024787790921",
      "category": "PASTRY",
      "business_hours": "10:30 ~ 22:00",
      "contact": "051-700-7100",
      "description": "",
      "avg_rating": 0.0,
      "created_at": "2024-01-01T00:00:00Z"
    }
  },
  {
    "model": "stores.store",
    "pk": 26,
    "fields": {
      "name": "파리바게뜨화명율리",
      "address": "부산광역시 북구 화명신도시로 218 (금곡동,신도시에이플러스 102,103호)",
      "latitude": "35.2434827582759",
      "longitude": "129.011499244391",
      "category": "ETC",
      "business_hours": "10:30 ~ 22:00",
      "contact": "051-332-8436",
      "description": "",
      "avg_rating": 0.0,
      "created_at": "2024-01-01T00:00:00Z"
    }
  },
  {
    "model": "stores.store",
    "pk": 27,
    "fields": {
      "name": "파티쉐 안동현",
      "address": "부산광역시 북구 화명대로 88 (화명동)",
      "latitude": "35.234114021038",
      "longitude": "129.017771895383",
      "category": "ETC",
      "business_hours": "10:30 ~ 22:00",
      "contact": "051-365-1719",
      "description": "",
      "avg_rating": 0.0,
      "created_at": "2024-01-01T00:00:00Z"
    }
  },
  {
    "model": "stores.store",
    "pk": 28,
    "fields": {
      "name": "파리바게뜨부산과기대점",
      "address": "부산광역시 북구 시랑로 71 (구포동)",
      "latitude": "35.1994801759964",
      "longitude": "129.00584389038",
      "category": "ETC",
      "business_hours": "10:30 ~ 22:00",
      "contact": "051-337-8282",
      "description": "",
      "avg_rating": 0.0,
      "created_at": "2024-01-01T00:00:00Z"
    }
  },
  {
    "model": "stores.store",
    "pk": 29,
    "fields": {
      "name": "드래곤과자점 (금곡점)",
      "address": "부산광역시 북구 효열로 213 (금곡동)",
      "latitude": "35.2633098133077",
      "longitude": "129.018918151511",
      "category": "ETC",
      "business_hours": "10:30 ~ 22:00",
      "contact": "051-365-2227",
      "description": "",
      "avg_rating": 0.0,
      "created_at": "2024-01-01T00:00:00Z"
    }
  },
  {
    "model": "stores.store",
    "pk": 30,
    "fields": {
      "name": "빵빵한빵집",
      "address": "부산광역시 북구 구포시장3길 6 (구포동)",
      "latitude": "35.2080642871981",
      "longitude": "129.003555700686",
      "category": "PASTRY",
      "business_hours": "10:30 ~ 22:00",
      "contact": "",
      "description": "",
      "avg_rating": 0.0,
      "created_at": "2024-01-01T00:00:00Z"
    }
  },
  {
    "model": "stores.store",
    "pk": 31,
    "fields": {
      "name": "파리바게트 금곡점",
      "address": "부산광역시 북구 효열로 214 (금곡동)",
      "latitude": "35.263027097093",
      "longitude": "129.019135497102",
      "category": "ETC",
      "business_hours": "10:30 ~ 22:00",
      "contact": "051-363-8225",
      "description": "",
      "avg_rating": 0.0,
      "created_at": "2024-01-01T00:00:00Z"
    }
  },
  {
    "model": "stores.store",
    "pk": 32,
    "fields": {
      "name": "파리바게뜨화명롯데카이저점",
      "address": "부산광역시 북구 금곡대로 166, 903동 지하1층 B114호 (화명동, 롯데캐슬카이저)",
      "latitude": "35.2263603201003",
      "longitude": "129.012210130511",
      "category": "ETC",
      "business_hours": "10:30 ~ 22:00",
      "contact": "051-361-8289",
      "description": "",
      "avg_rating": 0.0,
      "created_at": "2024-01-01T00:00:00Z"
    }
  },
  {
    "model": "stores.store",
    "pk": 33,
    "fields": {
      "name": "국제제과점",
      "address": "부산광역시 북구 낙동대로 1772 (구포동)",
      "latitude": "35.2092181614364",
      "longitude": "129.00312432155",
      "category": "ETC",
      "business_hours": "10:30 ~ 22:00",
      "contact": "051-341-7881",
      "description": "",
      "avg_rating": 0.0,
      "created_at": "2024-01-01T00:00:00Z"
    }
  },
  {
    "model": "stores.store",
    "pk": 34,
    "fields": {
      "name": "(주)자연드림 부산화명점",
      "address": "부산광역시 북구 와석장터로 16, 지하1층 (화명동, 아이쿱 부산센터)",
      "latitude": "35.235414502779",
      "longitude": "129.015813777983",
      "category": "ETC",
      "business_hours": "10:30 ~ 22:00",
      "contact": "051-361-6220",
      "description": "",
      "avg_rating": 0.0,
      "created_at": "2024-01-01T00:00:00Z"
    }
  },
  {
    "model": "stores.store",
    "pk": 35,
    "fields": {
      "name": "탑스베이커리",
      "address": "부산광역시 북구 백양대로 1052 (구포동)",
      "latitude": "35.1989383239176",
      "longitude": "128.99717166405",
      "category": "PASTRY",
      "business_hours": "10:30 ~ 22:00",
      "contact": "051-331-3000",
      "description": "",
      "avg_rating": 0.0,
      "created_at": "2024-01-01T00:00:00Z"
    }
  },
  {
    "model": "stores.store",
    "pk": 36,
    "fields": {
      "name": "드래곤과자점(화명카이저점)",
      "address": "부산광역시 북구 금곡대로 166, B108호 (화명동, 화명롯데캐슬카이저 903동)",
      "latitude": "35.2263603201003",
      "longitude": "129.012210130511",
      "category": "ETC",
      "business_hours": "10:30 ~ 22:00",
      "contact": "051-365-0250",
      "description": "",
      "avg_rating": 0.0,
      "created_at": "2024-01-01T00:00:00Z"
    }
  },
  {
    "model": "stores.store",
    "pk": 37,
    "fields": {
      "name": "bread O(브레드오)",
      "address": "부산광역시 북구 금곡대로 469, 1층 (금곡동, 농협하나로클럽부산점1동 )",
      "latitude": "35.2500069470531",
      "longitude": "129.011235306516",
      "category": "ETC",
      "business_hours": "10:30 ~ 22:00",
      "contact": "",
      "description": "",
      "avg_rating": 0.0,
      "created_at": "2024-01-01T00:00:00Z"
    }
  },
  {
    "model": "stores.store",
    "pk": 38,
    "fields": {
      "name": "파리바게뜨(부산화명)",
      "address": "부산광역시 북구 화명대로 27, 1층 (화명동, 윤프라자)",
      "latitude": "35.2352617650922",
      "longitude": "129.011253792525",
      "category": "ETC",
      "business_hours": "10:30 ~ 22:00",
      "contact": "051-336-5945",
      "description": "",
      "avg_rating": 0.0,
      "created_at": "2024-01-01T00:00:00Z"
    }
  },
  {
    "model": "stores.store",
    "pk": 39,
    "fields": {
      "name": "본브레드만덕점",
      "address": "부산광역시 북구 만덕2로 28, 1층 (만덕동)",
      "latitude": "35.2106745634441",
      "longitude": "129.037505523735",
      "category": "ETC",
      "business_hours": "10:30 ~ 22:00",
      "contact": "",
      "description": "",
      "avg_rating": 0.0,
      "created_at": "2024-01-01T00:00:00Z"
    }
  },
  {
    "model": "stores.store",
    "pk": 40,
    "fields": {
      "name": "앤티앤스 NC덕천점",
      "address": "부산광역시 북구 만덕대로 23, 6층 617호 (덕천동, 폴라렉스)",
      "latitude": "35.2111074893963",
      "longitude": "129.007592963592",
      "category": "ETC",
      "business_hours": "10:30 ~ 22:00",
      "contact": "",
      "description": "",
      "avg_rating": 0.0,
      "created_at": "2024-01-01T00:00:00Z"
    }
  },
  {
    "model": "stores.store",
    "pk": 41,
    "fields": {
      "name": "신성호베이커리",
      "address": "부산광역시 북구 화명대로 68, 상가동 107호 (화명동, 이편한세상화명힐스)",
      "latitude": "35.2341460173073",
      "longitude": "129.014088301293",
      "category": "PASTRY",
      "business_hours": "10:30 ~ 22:00",
      "contact": "051-361-6356",
      "description": "",
      "avg_rating": 0.0,
      "created_at": "2024-01-01T00:00:00Z"
    }
  },
  {
    "model": "stores.store",
    "pk": 42,
    "fields": {
      "name": "파리바게뜨(만덕삼성점)",
      "address": "부산광역시 북구 만덕2로 42, 지하1층 (만덕동)",
      "latitude": "35.2098167098758",
      "longitude": "129.037438296213",
      "category": "ETC",
      "business_hours": "10:30 ~ 22:00",
      "contact": "051-336-8212",
      "description": "",
      "avg_rating": 0.0,
      "created_at": "2024-01-01T00:00:00Z"
    }
  },
  {
    "model": "stores.store",
    "pk": 43,
    "fields": {
      "name": "우리베이커리",
      "address": "부산광역시 북구 화명신도시로 24, 1층 일부 호 (화명동)",
      "latitude": "35.2261227370218",
      "longitude": "129.00962571829",
      "category": "PASTRY",
      "business_hours": "10:30 ~ 22:00",
      "contact": "",
      "description": "",
      "avg_rating": 0.0,
      "created_at": "2024-01-01T00:00:00Z"
    }
  },
  {
    "model": "stores.store",
    "pk": 44,
    "fields": {
      "name": "뚜레쥬르 율리역점",
      "address": "부산광역시 북구 학사로 299, 1층 (금곡동)",
      "latitude": "35.2475987588652",
      "longitude": "129.01262904769",
      "category": "ETC",
      "business_hours": "10:30 ~ 22:00",
      "contact": "055-339-5969",
      "description": "",
      "avg_rating": 0.0,
      "created_at": "2024-01-01T00:00:00Z"
    }
  },
  {
    "model": "stores.store",
    "pk": 45,
    "fields": {
      "name": "데일리팡(구포점)",
      "address": "부산광역시 북구 구포시장길 6, 1층 (구포동)",
      "latitude": "35.2090920706117",
      "longitude": "129.003348620579",
      "category": "ETC",
      "business_hours": "10:30 ~ 22:00",
      "contact": "",
      "description": "",
      "avg_rating": 0.0,
      "created_at": "2024-01-01T00:00:00Z"
    }
  },
  {
    "model": "stores.store",
    "pk": 46,
    "fields": {
      "name": "브레드파파",
      "address": "부산광역시 북구 화명대로 47, 롯데마트 지하1층 (화명동)",
      "latitude": "35.2351671492048",
      "longitude": "129.013014537455",
      "category": "ETC",
      "business_hours": "10:30 ~ 22:00",
      "contact": "051-363-0250",
      "description": "",
      "avg_rating": 0.0,
      "created_at": "2024-01-01T00:00:00Z"
    }
  },
  {
    "model": "stores.store",
    "pk": 47,
    "fields": {
      "name": "뚜레쥬르 부산화명점",
      "address": "부산광역시 북구 금곡대로 238, 롯데캐슬멤버스아파트 상가동 124,125호 (화명동)",
      "latitude": "35.2293917370177",
      "longitude": "129.012838756815",
      "category": "ETC",
      "business_hours": "10:30 ~ 22:00",
      "contact": "051-364-2222",
      "description": "",
      "avg_rating": 0.0,
      "created_at": "2024-01-01T00:00:00Z"
    }
  },
  {
    "model": "stores.store",
    "pk": 48,
    "fields": {
      "name": "파리바게뜨(만덕역점)",
      "address": "부산광역시 북구 만덕1로10번길 2, 1층 (만덕동)",
      "latitude": "35.2142202665344",
      "longitude": "129.036509590546",
      "category": "ETC",
      "business_hours": "10:30 ~ 22:00",
      "contact": "",
      "description": "",
      "avg_rating": 0.0,
      "created_at": "2024-01-01T00:00:00Z"
    }
  },
  {
    "model": "stores.store",
    "pk": 49,
    "fields": {
      "name": "쏘 here",
      "address": "부산광역시 북구 금곡대로330번가길 7, 지하1층 (화명동)",
      "latitude": "35.2375098790529",
      "longitude": "129.014542414742",
      "category": "ETC",
      "business_hours": "10:30 ~ 22:00",
      "contact": "",
      "description": "",
      "avg_rating": 0.0,
      "created_at": "2024-01-01T00:00:00Z"
    }
  },
  {
    "model": "stores.store",
    "pk": 50,
    "fields": {
      "name": "드래곤과자점(본점)",
      "address": "부산광역시 북구 만덕1로 17, 1층 (만덕동)",
      "latitude": "35.2140339073075",
      "longitude": "129.035582888773",
      "category": "ETC",
      "business_hours": "10:30 ~ 22:00",
      "contact": "",
      "description": "",
      "avg_rating": 0.0,
      "created_at": "2024-01-01T00:00:00Z"
    }
  },
  {
    "model": "stores.store",
    "pk": 51,
    "fields": {
      "name": "PLAIN(플레인)",
      "address": "부산광역시 북구 금곡대로303번길 36, 1층 106호 (화명동)",
      "latitude": "35.2358273650311",
      "longitude": "129.011989056128",
      "category": "ETC",
      "business_hours": "10:30 ~ 22:00",
      "contact": "",
      "description": "",
      "avg_rating": 0.0,
      "created_at": "2024-01-01T00:00:00Z"
    }
  },
  {
    "model": "stores.store",
    "pk": 52,
    "fields": {
      "name": "달선빵베이커리",
      "address": "부산광역시 북구 화명신도시로 115, 성문타워 1층 101 일부호 (화명동)",
      "latitude": "35.2344024913289",
      "longitude": "129.010441435269",
      "category": "PASTRY",
      "business_hours": "10:30 ~ 22:00",
      "contact": "",
      "description": "",
      "avg_rating": 0.0,
      "created_at": "2024-01-01T00:00:00Z"
    }
  },
  {
    "model": "stores.store",
    "pk": 53,
    "fields": {
      "name": "피커케이크",
      "address": "부산광역시 북구 금곡대로8번길 23, 3층 (덕천동)",
      "latitude": "35.2111858684088",
      "longitude": "129.006306351207",
      "category": "CAKE",
      "business_hours": "10:30 ~ 22:00",
      "contact": "",
      "description": "",
      "avg_rating": 0.0,
      "created_at": "2024-01-01T00:00:00Z"
    }
  },
  {
    "model": "stores.store",
    "pk": 54,
    "fields": {
      "name": "딜리케이크",
      "address": "부산광역시 북구 낙동대로1780번길 93, 2층 (구포동)",
      "latitude": "35.2060069400558",
      "longitude": "129.004066424256",
      "category": "CAKE",
      "business_hours": "10:30 ~ 22:00",
      "contact": "",
      "description": "",
      "avg_rating": 0.0,
      "created_at": "2024-01-01T00:00:00Z"
    }
  },
  {
    "model": "stores.store",
    "pk": 55,
    "fields": {
      "name": "순수베이커리",
      "address": "부산광역시 북구 만덕대로66번길 27, 1층 (덕천동)",
      "latitude": "35.2106122554848",
      "longitude": "129.012641676107",
      "category": "PASTRY",
      "business_hours": "10:30 ~ 22:00",
      "contact": "",
      "description": "",
      "avg_rating": 0.0,
      "created_at": "2024-01-01T00:00:00Z"
    }
  },
  {
    "model": "stores.store",
    "pk": 56,
    "fields": {
      "name": "빵잘굽는집",
      "address": "부산광역시 북구 산성로12번길 70, 1층 (화명동)",
      "latitude": "35.2361755477021",
      "longitude": "129.015142069754",
      "category": "PASTRY",
      "business_hours": "10:30 ~ 22:00",
      "contact": "",
      "description": "",
      "avg_rating": 0.0,
      "created_at": "2024-01-01T00:00:00Z"
    }
  },
  {
    "model": "stores.store",
    "pk": 57,
    "fields": {
      "name": "다다제과",
      "address": "부산광역시 북구 금곡대로 213, 2층 (화명동)",
      "latitude": "35.2277347150419",
      "longitude": "129.011557775859",
      "category": "ETC",
      "business_hours": "10:30 ~ 22:00",
      "contact": "",
      "description": "",
      "avg_rating": 0.0,
      "created_at": "2024-01-01T00:00:00Z"
    }
  },
  {
    "model": "stores.store",
    "pk": 58,
    "fields": {
      "name": "제과점빵",
      "address": "부산광역시 북구 구포만세길 116, 1층 (구포동)",
      "latitude": "35.2066820101519",
      "longitude": "128.998233997955",
      "category": "PASTRY",
      "business_hours": "10:30 ~ 22:00",
      "contact": "",
      "description": "",
      "avg_rating": 0.0,
      "created_at": "2024-01-01T00:00:00Z"
    }
  },
  {
    "model": "stores.store",
    "pk": 59,
    "fields": {
      "name": "소담 단팥빵전문점",
      "address": "부산광역시 북구 금곡대로 215-1, 1층 (화명동)",
      "latitude": "35.2279442354333",
      "longitude": "129.01168243969",
      "category": "PASTRY",
      "business_hours": "10:30 ~ 22:00",
      "contact": "",
      "description": "",
      "avg_rating": 0.0,
      "created_at": "2024-01-01T00:00:00Z"
    }
  },
  {
    "model": "stores.store",
    "pk": 60,
    "fields": {
      "name": "구포카스테라",
      "address": "부산광역시 북구 구포시장길 74, 1층 (구포동)",
      "latitude": "35.2059045274962",
      "longitude": "129.003050816307",
      "category": "ETC",
      "business_hours": "10:30 ~ 22:00",
      "contact": "",
      "description": "",
      "avg_rating": 0.0,
      "created_at": "2024-01-01T00:00:00Z"
    }
  },
  {
    "model": "stores.store",
    "pk": 61,
    "fields": {
      "name": "베러케이크",
      "address": "부산광역시 북구 금곡대로 230, 금용복합스포츠타운 2층 203호 (화명동)",
      "latitude": "35.2287605302105",
      "longitude": "129.012922005366",
      "category": "CAKE",
      "business_hours": "10:30 ~ 22:00",
      "contact": "",
      "description": "",
      "avg_rating": 0.0,
      "created_at": "2024-01-01T00:00:00Z"
    }
  },
  {
    "model": "stores.store",
    "pk": 62,
    "fields": {
      "name": "유바르베이커리",
      "address": "부산광역시 북구 백양대로 1156-2, 1층 (구포동)",
      "latitude": "35.2055217795196",
      "longitude": "129.004717776042",
      "category": "PASTRY",
      "business_hours": "10:30 ~ 22:00",
      "contact": "",
      "description": "",
      "avg_rating": 0.0,
      "created_at": "2024-01-01T00:00:00Z"
    }
  },
  {
    "model": "stores.store",
    "pk": 63,
    "fields": {
      "name": "어리틀베이크샵(a Little bake shop)",
      "address": "부산광역시 북구 의성로115번길 15, 1층 일부호 (덕천동)",
      "latitude": "35.2106291270163",
      "longitude": "129.011930462606",
      "category": "ETC",
      "business_hours": "10:30 ~ 22:00",
      "contact": "",
      "description": "",
      "avg_rating": 0.0,
      "created_at": "2024-01-01T00:00:00Z"
    }
  },
  {
    "model": "stores.store",
    "pk": 64,
    "fields": {
      "name": "다예쁘다",
      "address": "부산광역시 북구 화명신도시로69번길 20, 1층 (화명동)",
      "latitude": "35.2305442067219",
      "longitude": "129.008919854306",
      "category": "ETC",
      "business_hours": "10:30 ~ 22:00",
      "contact": "",
      "description": "",
      "avg_rating": 0.0,
      "created_at": "2024-01-01T00:00:00Z"
    }
  },
  {
    "model": "stores.store",
    "pk": 65,
    "fields": {
      "name": "브레드라운지",
      "address": "부산광역시 북구 기찰로 164, B동 1층 (덕천동)",
      "latitude": "35.2141902240994",
      "longitude": "129.023019829851",
      "category": "ETC",
      "business_hours": "10:30 ~ 22:00",
      "contact": "",
      "description": "",
      "avg_rating": 0.0,
      "created_at": "2024-01-01T00:00:00Z"
    }
  },
  {
    "model": "stores.store",
    "pk": 66,
    "fields": {
      "name": "원트케이크",
      "address": "부산광역시 북구 금곡대로 166, 903동 203호 (화명동, 롯데캐슬카이저)",
      "latitude": "35.2263603201003",
      "longitude": "129.012210130511",
      "category": "CAKE",
      "business_hours": "10:30 ~ 22:00",
      "contact": "",
      "description": "",
      "avg_rating": 0.0,
      "created_at": "2024-01-01T00:00:00Z"
    }
  },
  {
    "model": "stores.store",
    "pk": 67,
    "fields": {
      "name": "BROWN bakery (브라운베이커리)",
      "address": "부산광역시 북구 화명신도시로 73, 1층 (화명동)",
      "latitude": "35.2305920714285",
      "longitude": "129.00987413515",
      "category": "PASTRY",
      "business_hours": "10:30 ~ 22:00",
      "contact": "",
      "description": "",
      "avg_rating": 0.0,
      "created_at": "2024-01-01T00:00:00Z"
    }
  },
  {
    "model": "stores.store",
    "pk": 68,
    "fields": {
      "name": "원베이커리&구우당",
      "address": "부산광역시 북구 기찰로 164, 메가마트 덕천점 1층 (덕천동)",
      "latitude": "35.2141902240994",
      "longitude": "129.023019829851",
      "category": "PASTRY",
      "business_hours": "10:30 ~ 22:00",
      "contact": "",
      "description": "",
      "avg_rating": 0.0,
      "created_at": "2024-01-01T00:00:00Z"
    }
  },
  {
    "model": "stores.store",
    "pk": 69,
    "fields": {
      "name": "마실카페",
      "address": "부산광역시 북구 은행나무로 50-1, 1층 일부호 (만덕동)",
      "latitude": "35.2056883215016",
      "longitude": "129.039642366515",
      "category": "ETC",
      "business_hours": "10:30 ~ 22:00",
      "contact": "",
      "description": "",
      "avg_rating": 0.0,
      "created_at": "2024-01-01T00:00:00Z"
    }
  },
  {
    "model": "stores.store",
    "pk": 70,
    "fields": {
      "name": "티니케이크",
      "address": "부산광역시 북구 의성로 110, 1층 (덕천동)",
      "latitude": "35.2108678838703",
      "longitude": "129.010632116861",
      "category": "CAKE",
      "business_hours": "10:30 ~ 22:00",
      "contact": "",
      "description": "",
      "avg_rating": 0.0,
      "created_at": "2024-01-01T00:00:00Z"
    }
  },
  {
    "model": "stores.store",
    "pk": 71,
    "fields": {
      "name": "키키네과자집",
      "address": "부산광역시 북구 모분재로 115, 1층 (구포동)",
      "latitude": "35.1982176797869",
      "longitude": "129.009188756255",
      "category": "ETC",
      "business_hours": "10:30 ~ 22:00",
      "contact": "",
      "description": "",
      "avg_rating": 0.0,
      "created_at": "2024-01-01T00:00:00Z"
    }
  },
  {
    "model": "stores.store",
    "pk": 72,
    "fields": {
      "name": "파리바게뜨 덕천포레나점",
      "address": "부산광역시 북구 만덕대로 74, 1층 (덕천동)",
      "latitude": "35.2118107329136",
      "longitude": "129.013063156369",
      "category": "ETC",
      "business_hours": "10:30 ~ 22:00",
      "contact": "",
      "description": "",
      "avg_rating": 0.0,
      "created_at": "2024-01-01T00:00:00Z"
    }
  },
  {
    "model": "stores.store",
    "pk": 73,
    "fields": {
      "name": "드래곤과자점(동문점)",
      "address": "부산광역시 북구 덕천로276번길 60, 상가동 108,109호 (만덕동, 백양산동문굿모닝힐)",
      "latitude": "35.2058687951711",
      "longitude": "129.033190025409",
      "category": "ETC",
      "business_hours": "10:30 ~ 22:00",
      "contact": "",
      "description": "",
      "avg_rating": 0.0,
      "created_at": "2024-01-01T00:00:00Z"
    }
  },
  {
    "model": "stores.store",
    "pk": 74,
    "fields": {
      "name": "드래곤과자점",
      "address": "부산광역시 북구 화명대로 31, 현호타워 105호 (화명동)",
      "latitude": "35.2351996396397",
      "longitude": "129.011619109568",
      "category": "ETC",
      "business_hours": "10:30 ~ 22:00",
      "contact": "",
      "description": "",
      "avg_rating": 0.0,
      "created_at": "2024-01-01T00:00:00Z"
    }
  },
  {
    "model": "stores.store",
    "pk": 75,
    "fields": {
      "name": "화이트리에 화명점",
      "address": "부산광역시 북구 금곡대로303번길 36, 101호 (화명동)",
      "latitude": "35.2358273650311",
      "longitude": "129.011989056128",
      "category": "ETC",
      "business_hours": "10:30 ~ 22:00",
      "contact": "051-365-5233",
      "description": "",
      "avg_rating": 0.0,
      "created_at": "2024-01-01T00:00:00Z"
    }
  },
  {
    "model": "stores.store",
    "pk": 76,
    "fields": {
      "name": "드래곤과자점 숙등역점",
      "address": "부산광역시 북구 만덕대로 81, 501동 13호 (덕천동, 포레나부산덕천)",
      "latitude": "35.2127277626499",
      "longitude": "129.012184959816",
      "category": "ETC",
      "business_hours": "10:30 ~ 22:00",
      "contact": "",
      "description": "",
      "avg_rating": 0.0,
      "created_at": "2024-01-01T00:00:00Z"
    }
  },
  {
    "model": "stores.store",
    "pk": 77,
    "fields": {
      "name": "드래곤과자점 공장",
      "address": "부산광역시 북구 만덕1로 15, 지하1층 (만덕동)",
      "latitude": "35.2140033583175",
      "longitude": "129.03578109528",
      "category": "ETC",
      "business_hours": "10:30 ~ 22:00",
      "contact": "",
      "description": "",
      "avg_rating": 0.0,
      "created_at": "2024-01-01T00:00:00Z"
    }
  },
  {
    "model": "stores.store",
    "pk": 78,
    "fields": {
      "name": "이왕당과자점",
      "address": "대구광역시 동구 아양로50길 123 (효목동)",
      "latitude": "35.8821572741635",
      "longitude": "128.642921176126",
      "category": "ETC",
      "business_hours": "10:30 ~ 22:00",
      "contact": "",
      "description": "",
      "avg_rating": 0.0,
      "created_at": "2024-01-01T00:00:00Z"
    }
  },
  {
    "model": "stores.store",
    "pk": 79,
    "fields": {
      "name": "미도당",
      "address": "대구광역시 동구 효목로 8 (효목동)",
      "latitude": "35.8740546093426",
      "longitude": "128.639572754142",
      "category": "ETC",
      "business_hours": "10:30 ~ 22:00",
      "contact": "",
      "description": "",
      "avg_rating": 0.0,
      "created_at": "2024-01-01T00:00:00Z"
    }
  },
  {
    "model": "stores.store",
    "pk": 80,
    "fields": {
      "name": "영우과자점",
      "address": "대구광역시 동구 아양로 341 (입석동)",
      "latitude": "35.8944690767723",
      "longitude": "128.64460821646",
      "category": "ETC",
      "business_hours": "10:30 ~ 22:00",
      "contact": "",
      "description": "",
      "avg_rating": 0.0,
      "created_at": "2024-01-01T00:00:00Z"
    }
  },
  {
    "model": "stores.store",
    "pk": 81,
    "fields": {
      "name": "미소네빵집",
      "address": "대구광역시 동구 아양로11길 1 (신암동)",
      "latitude": "35.8828131659646",
      "longitude": "128.620334958061",
      "category": "PASTRY",
      "business_hours": "10:30 ~ 22:00",
      "contact": "",
      "description": "",
      "avg_rating": 0.0,
      "created_at": "2024-01-01T00:00:00Z"
    }
  },
  {
    "model": "stores.store",
    "pk": 82,
    "fields": {
      "name": "레이몬드베이커리",
      "address": "대구광역시 동구 아양로 232 (효목동)",
      "latitude": "35.8864213008773",
      "longitude": "128.638453238783",
      "category": "PASTRY",
      "business_hours": "10:30 ~ 22:00",
      "contact": "",
      "description": "",
      "avg_rating": 0.0,
      "created_at": "2024-01-01T00:00:00Z"
    }
  },
  {
    "model": "stores.store",
    "pk": 83,
    "fields": {
      "name": "모모(MOMO)",
      "address": "대구광역시 동구 동호로 88, 상가동 104호 (신서동,아름다운나날2단지)",
      "latitude": "35.865165469987",
      "longitude": "128.7265709949",
      "category": "ETC",
      "business_hours": "10:30 ~ 22:00",
      "contact": "",
      "description": "",
      "avg_rating": 0.0,
      "created_at": "2024-01-01T00:00:00Z"
    }
  },
  {
    "model": "stores.store",
    "pk": 84,
    "fields": {
      "name": "이수호빵전문점",
      "address": "대구광역시 동구 팔공로26길 9-2 (불로동)",
      "latitude": "35.910197174495",
      "longitude": "128.642151528454",
      "category": "PASTRY",
      "business_hours": "10:30 ~ 22:00",
      "contact": "",
      "description": "",
      "avg_rating": 0.0,
      "created_at": "2024-01-01T00:00:00Z"
    }
  },
  {
    "model": "stores.store",
    "pk": 85,
    "fields": {
      "name": "베이커리인토쿄",
      "address": "대구광역시 동구 경대로 38 (신암동)",
      "latitude": "35.8846812413251",
      "longitude": "128.614177869719",
      "category": "PASTRY",
      "business_hours": "10:30 ~ 22:00",
      "contact": "",
      "description": "",
      "avg_rating": 0.0,
      "created_at": "2024-01-01T00:00:00Z"
    }
  },
  {
    "model": "stores.store",
    "pk": 86,
    "fields": {
      "name": "빵마을사람들",
      "address": "대구광역시 동구 동촌로46길 14 (방촌동)",
      "latitude": "35.8806896832888",
      "longitude": "128.663878517842",
      "category": "PASTRY",
      "business_hours": "10:30 ~ 22:00",
      "contact": "",
      "description": "",
      "avg_rating": 0.0,
      "created_at": "2024-01-01T00:00:00Z"
    }
  },
  {
    "model": "stores.store",
    "pk": 87,
    "fields": {
      "name": "알프스베이커리",
      "address": "대구광역시 동구 아양로 27, 1층 (신암동)",
      "latitude": "35.8819040488904",
      "longitude": "128.616915568367",
      "category": "PASTRY",
      "business_hours": "10:30 ~ 22:00",
      "contact": "",
      "description": "",
      "avg_rating": 0.0,
      "created_at": "2024-01-01T00:00:00Z"
    }
  },
  {
    "model": "stores.store",
    "pk": 88,
    "fields": {
      "name": "파리바게트 대구아양점",
      "address": "대구광역시 동구 해동로 45 (지저동)",
      "latitude": "35.8940253356958",
      "longitude": "128.63766095393",
      "category": "ETC",
      "business_hours": "10:30 ~ 22:00",
      "contact": "",
      "description": "",
      "avg_rating": 0.0,
      "created_at": "2024-01-01T00:00:00Z"
    }
  },
  {
    "model": "stores.store",
    "pk": 89,
    "fields": {
      "name": "파리바게뜨대구동호점",
      "address": "대구광역시 동구 동호로 79, 103,104호 (신서동)",
      "latitude": null,
      "longitude": null,
      "category": "ETC",
      "business_hours": "10:30 ~ 22:00",
      "contact": "",
      "description": "",
      "avg_rating": 0.0,
      "created_at": "2024-01-01T00:00:00Z"
    }
  },
  {
    "model": "stores.store",
    "pk": 90,
    "fields": {
      "name": "떡보의하루 동구점",
      "address": "대구광역시 동구 동촌로 190, 101동 105호 (방촌동,영남네오빌상가)",
      "latitude": "35.8808977043024",
      "longitude": "128.661454485258",
      "category": "ETC",
      "business_hours": "10:30 ~ 22:00",
      "contact": "",
      "description": "",
      "avg_rating": 0.0,
      "created_at": "2024-01-01T00:00:00Z"
    }
  },
  {
    "model": "stores.store",
    "pk": 91,
    "fields": {
      "name": "베이커리(BAKERY)",
      "address": "대구광역시 동구 동촌로 127, 지하2층 (검사동, 홈플러스)",
      "latitude": "35.8861733086169",
      "longitude": "128.655659607317",
      "category": "PASTRY",
      "business_hours": "10:30 ~ 22:00",
      "contact": "",
      "description": "",
      "avg_rating": 0.0,
      "created_at": "2024-01-01T00:00:00Z"
    }
  },
  {
    "model": "stores.store",
    "pk": 92,
    "fields": {
      "name": "(주)신세계푸드 베이커리 반야월점",
      "address": "대구광역시 동구 안심로 389-2, 1층 (신서동, 이마트반야월점 내)",
      "latitude": "35.8708526747902",
      "longitude": "128.727433746817",
      "category": "PASTRY",
      "business_hours": "10:30 ~ 22:00",
      "contact": "",
      "description": "",
      "avg_rating": 0.0,
      "created_at": "2024-01-01T00:00:00Z"
    }
  },
  {
    "model": "stores.store",
    "pk": 93,
    "fields": {
      "name": "파리바게뜨 대구방촌점",
      "address": "대구광역시 동구 동촌로 225 (방촌동)",
      "latitude": "35.8818669997858",
      "longitude": "128.665069131963",
      "category": "ETC",
      "business_hours": "10:30 ~ 22:00",
      "contact": "",
      "description": "",
      "avg_rating": 0.0,
      "created_at": "2024-01-01T00:00:00Z"
    }
  },
  {
    "model": "stores.store",
    "pk": 94,
    "fields": {
      "name": "대백베이커리",
      "address": "대구광역시 동구 화랑로 414 (방촌동,외1필지. 101호.)",
      "latitude": "35.8761992115553",
      "longitude": "128.6691284634",
      "category": "PASTRY",
      "business_hours": "10:30 ~ 22:00",
      "contact": "",
      "description": "",
      "avg_rating": 0.0,
      "created_at": "2024-01-01T00:00:00Z"
    }
  },
  {
    "model": "stores.store",
    "pk": 95,
    "fields": {
      "name": "구페케익하우스",
      "address": "대구광역시 동구 아양로37길 25 (신암동)",
      "latitude": "35.8870134212495",
      "longitude": "128.63362610491",
      "category": "CAKE",
      "business_hours": "10:30 ~ 22:00",
      "contact": "",
      "description": "",
      "avg_rating": 0.0,
      "created_at": "2024-01-01T00:00:00Z"
    }
  },
  {
    "model": "stores.store",
    "pk": 96,
    "fields": {
      "name": "파리바게뜨 신암점",
      "address": "대구광역시 동구 아양로 29, 1층 (신암동)",
      "latitude": "35.8819209568108",
      "longitude": "128.617065287711",
      "category": "ETC",
      "business_hours": "10:30 ~ 22:00",
      "contact": "",
      "description": "",
      "avg_rating": 0.0,
      "created_at": "2024-01-01T00:00:00Z"
    }
  },
  {
    "model": "stores.store",
    "pk": 97,
    "fields": {
      "name": "그라쎄",
      "address": "대구광역시 동구 아양로 99, B,C동 (신암동, 파티마병원)",
      "latitude": "35.8838489268403",
      "longitude": "128.622991290313",
      "category": "ETC",
      "business_hours": "10:30 ~ 22:00",
      "contact": "",
      "description": "",
      "avg_rating": 0.0,
      "created_at": "2024-01-01T00:00:00Z"
    }
  },
  {
    "model": "stores.store",
    "pk": 98,
    "fields": {
      "name": "코코호도동호점",
      "address": "대구광역시 동구 동호로 75 (신서동,106호)",
      "latitude": "35.8663570566412",
      "longitude": "128.72507639879",
      "category": "ETC",
      "business_hours": "10:30 ~ 22:00",
      "contact": "",
      "description": "",
      "avg_rating": 0.0,
      "created_at": "2024-01-01T00:00:00Z"
    }
  },
  {
    "model": "stores.store",
    "pk": 99,
    "fields": {
      "name": "파리바게뜨 동대구터미널점",
      "address": "대구광역시 동구 동부로 154, 2호 (신천동)",
      "latitude": "35.8770308406896",
      "longitude": "128.629193202387",
      "category": "ETC",
      "business_hours": "10:30 ~ 22:00",
      "contact": "",
      "description": "",
      "avg_rating": 0.0,
      "created_at": "2024-01-01T00:00:00Z"
    }
  },
  {
    "model": "stores.store",
    "pk": 100,
    "fields": {
      "name": "파리바게뜨대구안심점",
      "address": "대구광역시 동구 안심로41길 37 (서호동)",
      "latitude": "35.8694755835403",
      "longitude": "128.708312870224",
      "category": "ETC",
      "business_hours": "10:30 ~ 22:00",
      "contact": "",
      "description": "",
      "avg_rating": 0.0,
      "created_at": "2024-01-01T00:00:00Z"
    }
  },
  {
    "model": "stores.store",
    "pk": 101,
    "fields": {
      "name": "파리바게뜨 대구팔공점",
      "address": "대구광역시 동구 파계로6길 32 (지묘동,노블하이츠 101,102호)",
      "latitude": "35.9402837142362",
      "longitude": "128.6400681682",
      "category": "ETC",
      "business_hours": "10:30 ~ 22:00",
      "contact": "",
      "description": "",
      "avg_rating": 0.0,
      "created_at": "2024-01-01T00:00:00Z"
    }
  },
  {
    "model": "stores.store",
    "pk": 102,
    "fields": {
      "name": "파리바게뜨대구율하점",
      "address": "대구광역시 동구 안심로22길 60, 105호 (율하동,신기동 서호동일원 택지개발사업지구 대구율하2 C2 5)",
      "latitude": "35.8630944699716",
      "longitude": "128.698365731885",
      "category": "ETC",
      "business_hours": "10:30 ~ 22:00",
      "contact": "",
      "description": "",
      "avg_rating": 0.0,
      "created_at": "2024-01-01T00:00:00Z"
    }
  },
  {
    "model": "stores.store",
    "pk": 103,
    "fields": {
      "name": "파리바게뜨 대구 효목점",
      "address": "대구광역시 동구 효목로 36 (효목동)",
      "latitude": "35.876592327943",
      "longitude": "128.639841188798",
      "category": "ETC",
      "business_hours": "10:30 ~ 22:00",
      "contact": "",
      "description": "",
      "avg_rating": 0.0,
      "created_at": "2024-01-01T00:00:00Z"
    }
  },
  {
    "model": "stores.store",
    "pk": 104,
    "fields": {
      "name": "(주)신세계푸드 베이커리 반야월점2",
      "address": "대구광역시 동구 안심로 389-2, 1층 (신서동, 이마트반야월점 내)",
      "latitude": "35.8708526747902",
      "longitude": "128.727433746817",
      "category": "PASTRY",
      "business_hours": "10:30 ~ 22:00",
      "contact": "",
      "description": "",
      "avg_rating": 0.0,
      "created_at": "2024-01-01T00:00:00Z"
    }
  },
  {
    "model": "stores.store",
    "pk": 105,
    "fields": {
      "name": "파리바게뜨 강촌우방점",
      "address": "대구광역시 동구 화랑로80길 8, 147동 108,109호 (방촌동,우방강촌마을)",
      "latitude": "35.8757757374524",
      "longitude": "128.666113165942",
      "category": "ETC",
      "business_hours": "10:30 ~ 22:00",
      "contact": "",
      "description": "",
      "avg_rating": 0.0,
      "created_at": "2024-01-01T00:00:00Z"
    }
  },
  {
    "model": "stores.store",
    "pk": 106,
    "fields": {
      "name": "파리바게뜨대구방촌역점",
      "address": "대구광역시 동구 동촌로 269 (방촌동)",
      "latitude": "35.8800524259218",
      "longitude": "128.669499648119",
      "category": "ETC",
      "business_hours": "10:30 ~ 22:00",
      "contact": "",
      "description": "",
      "avg_rating": 0.0,
      "created_at": "2024-01-01T00:00:00Z"
    }
  },
  {
    "model": "stores.store",
    "pk": 107,
    "fields": {
      "name": "베이커리르뺑",
      "address": "대구광역시 동구 신암로20길 39, 105동 105호 (신암동,신암청아람)",
      "latitude": "35.8792985223565",
      "longitude": "128.611698182473",
      "category": "PASTRY",
      "business_hours": "10:30 ~ 22:00",
      "contact": "",
      "description": "",
      "avg_rating": 0.0,
      "created_at": "2024-01-01T00:00:00Z"
    }
  },
  {
    "model": "stores.store",
    "pk": 108,
    "fields": {
      "name": "스마일제과점",
      "address": "대구광역시 동구 아양로37길 15 (신암동)",
      "latitude": "35.8865173060078",
      "longitude": "128.633728421232",
      "category": "ETC",
      "business_hours": "10:30 ~ 22:00",
      "contact": "",
      "description": "",
      "avg_rating": 0.0,
      "created_at": "2024-01-01T00:00:00Z"
    }
  },
  {
    "model": "stores.store",
    "pk": 109,
    "fields": {
      "name": "파리바게뜨 대구불로점",
      "address": "대구광역시 동구 팔공로 130 (불로동)",
      "latitude": "35.9104058532981",
      "longitude": "128.641243873048",
      "category": "ETC",
      "business_hours": "10:30 ~ 22:00",
      "contact": "",
      "description": "",
      "avg_rating": 0.0,
      "created_at": "2024-01-01T00:00:00Z"
    }
  },
  {
    "model": "stores.store",
    "pk": 110,
    "fields": {
      "name": "뚜레쥬르동대구역사점",
      "address": "대구광역시 동구 동대구로 550 (신암동,동대구역내 코레일유통(주))",
      "latitude": "35.8794361440597",
      "longitude": "128.628775532684",
      "category": "ETC",
      "business_hours": "10:30 ~ 22:00",
      "contact": "",
      "description": "",
      "avg_rating": 0.0,
      "created_at": "2024-01-01T00:00:00Z"
    }
  },
  {
    "model": "stores.store",
    "pk": 111,
    "fields": {
      "name": "파리바게뜨대구신천점",
      "address": "대구광역시 동구 동부로 26 (신천동,휴먼시아5단지내 상가 104호)",
      "latitude": "35.8735775003755",
      "longitude": "128.615209764551",
      "category": "ETC",
      "business_hours": "10:30 ~ 22:00",
      "contact": "",
      "description": "",
      "avg_rating": 0.0,
      "created_at": "2024-01-01T00:00:00Z"
    }
  },
  {
    "model": "stores.store",
    "pk": 112,
    "fields": {
      "name": "파리바게뜨대구신천점",
      "address": "대구광역시 동구 동부로 26 (신천동,휴먼시아5단지내 상가 108호)",
      "latitude": "35.8735775003755",
      "longitude": "128.615209764551",
      "category": "ETC",
      "business_hours": "10:30 ~ 22:00",
      "contact": "",
      "description": "",
      "avg_rating": 0.0,
      "created_at": "2024-01-01T00:00:00Z"
    }
  },
  {
    "model": "stores.store",
    "pk": 113,
    "fields": {
      "name": "뚜레쥬르대구율하점",
      "address": "대구광역시 동구 안심로22길 40 (율하동,번지 102호,103호)",
      "latitude": "35.8633566676828",
      "longitude": "128.695670054827",
      "category": "ETC",
      "business_hours": "10:30 ~ 22:00",
      "contact": "",
      "description": "",
      "avg_rating": 0.0,
      "created_at": "2024-01-01T00:00:00Z"
    }
  },
  {
    "model": "stores.store",
    "pk": 114,
    "fields": {
      "name": "파리바게뜨 율하롯데점",
      "address": "대구광역시 동구 율하서로 36, 1층 101, 102호 (율하동)",
      "latitude": "35.86619547555",
      "longitude": "128.691907818704",
      "category": "ETC",
      "business_hours": "10:30 ~ 22:00",
      "contact": "",
      "description": "",
      "avg_rating": 0.0,
      "created_at": "2024-01-01T00:00:00Z"
    }
  },
  {
    "model": "stores.store",
    "pk": 115,
    "fields": {
      "name": "파리바게뜨대구신서점",
      "address": "대구광역시 동구 반야월북로 242 (신서동)",
      "latitude": "35.8725852367159",
      "longitude": "128.724237692676",
      "category": "ETC",
      "business_hours": "10:30 ~ 22:00",
      "contact": "",
      "description": "",
      "avg_rating": 0.0,
      "created_at": "2024-01-01T00:00:00Z"
    }
  },
  {
    "model": "stores.store",
    "pk": 116,
    "fields": {
      "name": "파리바게뜨대구청아람점",
      "address": "대구광역시 동구 신암로20길 8 (신암동,외 2필지)",
      "latitude": "35.8793109798796",
      "longitude": "128.610957781467",
      "category": "ETC",
      "business_hours": "10:30 ~ 22:00",
      "contact": "",
      "description": "",
      "avg_rating": 0.0,
      "created_at": "2024-01-01T00:00:00Z"
    }
  },
  {
    "model": "stores.store",
    "pk": 117,
    "fields": {
      "name": "파리바게뜨대구아양교역점",
      "address": "대구광역시 동구 아양로 246 (효목동)",
      "latitude": "35.8869166407025",
      "longitude": "128.639807573246",
      "category": "ETC",
      "business_hours": "10:30 ~ 22:00",
      "contact": "",
      "description": "",
      "avg_rating": 0.0,
      "created_at": "2024-01-01T00:00:00Z"
    }
  },
  {
    "model": "stores.store",
    "pk": 118,
    "fields": {
      "name": "뚜레쥬르대구동호점",
      "address": "대구광역시 동구 금강로 2 (동호동)",
      "latitude": "35.8673048865939",
      "longitude": "128.723869523383",
      "category": "ETC",
      "business_hours": "10:30 ~ 22:00",
      "contact": "",
      "description": "",
      "avg_rating": 0.0,
      "created_at": "2024-01-01T00:00:00Z"
    }
  },
  {
    "model": "stores.store",
    "pk": 119,
    "fields": {
      "name": "베이커리(BAKERY)",
      "address": "대구광역시 동구 동촌로 127, 지하2층 (검사동, 홈플러스)",
      "latitude": "35.8861733086169",
      "longitude": "128.655659607317",
      "category": "PASTRY",
      "business_hours": "10:30 ~ 22:00",
      "contact": "",
      "description": "",
      "avg_rating": 0.0,
      "created_at": "2024-01-01T00:00:00Z"
    }
  },
  {
    "model": "stores.store",
    "pk": 120,
    "fields": {
      "name": "스마일제과점",
      "address": "대구광역시 동구 동부로30길 16 (신천동)",
      "latitude": "35.8758041156404",
      "longitude": "128.628609043827",
      "category": "ETC",
      "business_hours": "10:30 ~ 22:00",
      "contact": "",
      "description": "",
      "avg_rating": 0.0,
      "created_at": "2024-01-01T00:00:00Z"
    }
  },
  {
    "model": "stores.store",
    "pk": 121,
    "fields": {
      "name": "천안명가호두과자",
      "address": "대구광역시 동구 동대구로 550 (신암동, 동대구역사내)",
      "latitude": "35.8794361440597",
      "longitude": "128.628775532684",
      "category": "ETC",
      "business_hours": "10:30 ~ 22:00",
      "contact": "",
      "description": "",
      "avg_rating": 0.0,
      "created_at": "2024-01-01T00:00:00Z"
    }
  },
  {
    "model": "stores.store",
    "pk": 122,
    "fields": {
      "name": "풍미당베이커리",
      "address": "대구광역시 동구 팔공로101길 55, 208동 105호 (지묘동, 보성상가2차)",
      "latitude": "35.940091380437",
      "longitude": "128.642350453639",
      "category": "PASTRY",
      "business_hours": "10:30 ~ 22:00",
      "contact": "",
      "description": "",
      "avg_rating": 0.0,
      "created_at": "2024-01-01T00:00:00Z"
    }
  },
  {
    "model": "stores.store",
    "pk": 123,
    "fields": {
      "name": "파파쉐프",
      "address": "대구광역시 동구 동부로16길 10 (신천동)",
      "latitude": "35.8746708868876",
      "longitude": "128.620465168167",
      "category": "ETC",
      "business_hours": "10:30 ~ 22:00",
      "contact": "",
      "description": "",
      "avg_rating": 0.0,
      "created_at": "2024-01-01T00:00:00Z"
    }
  },
  {
    "model": "stores.store",
    "pk": 124,
    "fields": {
      "name": "파리바게뜨이시아폴리스점",
      "address": "대구광역시 동구 팔공로51길 15-5, 110,111호 (봉무동)",
      "latitude": null,
      "longitude": null,
      "category": "ETC",
      "business_hours": "10:30 ~ 22:00",
      "contact": "",
      "description": "",
      "avg_rating": 0.0,
      "created_at": "2024-01-01T00:00:00Z"
    }
  },
  {
    "model": "stores.store",
    "pk": 125,
    "fields": {
      "name": "뚜레쥬르 대구혁신도시점",
      "address": "대구광역시 동구 이노밸리로 166, 1층 106,107호 (각산동)",
      "latitude": "35.8784874285268",
      "longitude": "128.715314273778",
      "category": "ETC",
      "business_hours": "10:30 ~ 22:00",
      "contact": "",
      "description": "",
      "avg_rating": 0.0,
      "created_at": "2024-01-01T00:00:00Z"
    }
  },
  {
    "model": "stores.store",
    "pk": 126,
    "fields": {
      "name": "삼송빵집",
      "address": "대구광역시 동구 동대구로 550, 3층 (신암동)",
      "latitude": "35.8794361440597",
      "longitude": "128.628775532684",
      "category": "PASTRY",
      "business_hours": "10:30 ~ 22:00",
      "contact": "",
      "description": "",
      "avg_rating": 0.0,
      "created_at": "2024-01-01T00:00:00Z"
    }
  },
  {
    "model": "stores.store",
    "pk": 127,
    "fields": {
      "name": "파리바게뜨 대구혁신도시점",
      "address": "대구광역시 동구 이노밸리로 158, 103호,104호 (각산동, 파크원프라자)",
      "latitude": "35.8785204188482",
      "longitude": "128.714499612639",
      "category": "ETC",
      "business_hours": "10:30 ~ 22:00",
      "contact": "",
      "description": "",
      "avg_rating": 0.0,
      "created_at": "2024-01-01T00:00:00Z"
    }
  },
  {
    "model": "stores.store",
    "pk": 128,
    "fields": {
      "name": "빵장수단팥빵",
      "address": "대구광역시 동구 율하서로 16, 1층 105호 (율하동)",
      "latitude": "35.8677297843758",
      "longitude": "128.692857448324",
      "category": "PASTRY",
      "business_hours": "10:30 ~ 22:00",
      "contact": "",
      "description": "",
      "avg_rating": 0.0,
      "created_at": "2024-01-01T00:00:00Z"
    }
  },
  {
    "model": "stores.store",
    "pk": 129,
    "fields": {
      "name": "진베이커리",
      "address": "대구광역시 동구 동촌역사로 15, 1층 (검사동)",
      "latitude": "35.8885139529803",
      "longitude": "128.653066329636",
      "category": "PASTRY",
      "business_hours": "10:30 ~ 22:00",
      "contact": "",
      "description": "",
      "avg_rating": 0.0,
      "created_at": "2024-01-01T00:00:00Z"
    }
  },
  {
    "model": "stores.store",
    "pk": 130,
    "fields": {
      "name": "시루마루",
      "address": "대구광역시 동구 과학로13길 6-1, 101호 (각산동)",
      "latitude": "35.8848186975022",
      "longitude": "128.717925932963",
      "category": "ETC",
      "business_hours": "10:30 ~ 22:00",
      "contact": "",
      "description": "",
      "avg_rating": 0.0,
      "created_at": "2024-01-01T00:00:00Z"
    }
  },
  {
    "model": "stores.store",
    "pk": 131,
    "fields": {
      "name": "출장스낵카1994",
      "address": "대구광역시 동구 금호강변로 278 (율하동, 율하체육공원 내)",
      "latitude": "35.8599253741795",
      "longitude": "128.692837900087",
      "category": "ETC",
      "business_hours": "10:30 ~ 22:00",
      "contact": "",
      "description": "",
      "avg_rating": 0.0,
      "created_at": "2024-01-01T00:00:00Z"
    }
  },
  {
    "model": "stores.store",
    "pk": 132,
    "fields": {
      "name": "아띠맘마",
      "address": "대구광역시 동구 메디밸리로8길 4-17 (사복동)",
      "latitude": "35.8754765646839",
      "longitude": "128.750876580163",
      "category": "ETC",
      "business_hours": "10:30 ~ 22:00",
      "contact": "",
      "description": "",
      "avg_rating": 0.0,
      "created_at": "2024-01-01T00:00:00Z"
    }
  },
  {
    "model": "stores.store",
    "pk": 133,
    "fields": {
      "name": "대구근대골목단팥빵 동대구역사점",
      "address": "대구광역시 동구 동대구로 550, 3층 (신암동, 동대구역사)",
      "latitude": "35.8794361440597",
      "longitude": "128.628775532684",
      "category": "PASTRY",
      "business_hours": "10:30 ~ 22:00",
      "contact": "",
      "description": "",
      "avg_rating": 0.0,
      "created_at": "2024-01-01T00:00:00Z"
    }
  },
  {
    "model": "stores.store",
    "pk": 134,
    "fields": {
      "name": "파리바게뜨 대구한의대병원역점",
      "address": "대구광역시 동구 메디밸리로 19, 111호 (대림동)",
      "latitude": "35.8742673232007",
      "longitude": "128.749332691595",
      "category": "ETC",
      "business_hours": "10:30 ~ 22:00",
      "contact": "",
      "description": "",
      "avg_rating": 0.0,
      "created_at": "2024-01-01T00:00:00Z"
    }
  },
  {
    "model": "stores.store",
    "pk": 135,
    "fields": {
      "name": "디토르테",
      "address": "대구광역시 동구 팔공산로 1488, 지하1층 (도학동)",
      "latitude": "35.9708419365558",
      "longitude": "128.700669876343",
      "category": "ETC",
      "business_hours": "10:30 ~ 22:00",
      "contact": "",
      "description": "",
      "avg_rating": 0.0,
      "created_at": "2024-01-01T00:00:00Z"
    }
  },
  {
    "model": "stores.store",
    "pk": 136,
    "fields": {
      "name": "신세계터미널 파리바게뜨",
      "address": "대구광역시 동구 동부로 149, 3층 8호 (신천동, 동대구복합환승센터)",
      "latitude": "35.8779406718693",
      "longitude": "128.629190024219",
      "category": "ETC",
      "business_hours": "10:30 ~ 22:00",
      "contact": "",
      "description": "",
      "avg_rating": 0.0,
      "created_at": "2024-01-01T00:00:00Z"
    }
  },
  {
    "model": "stores.store",
    "pk": 137,
    "fields": {
      "name": "박남수베이커리",
      "address": "대구광역시 동구 경안로 820 (각산동)",
      "latitude": "35.8753607568577",
      "longitude": "128.714300972311",
      "category": "PASTRY",
      "business_hours": "10:30 ~ 22:00",
      "contact": "",
      "description": "",
      "avg_rating": 0.0,
      "created_at": "2024-01-01T00:00:00Z"
    }
  },
  {
    "model": "stores.store",
    "pk": 138,
    "fields": {
      "name": "밀크프랑스",
      "address": "대구광역시 동구 율하동로 42, 1층 (율하동)",
      "latitude": "35.8634211272077",
      "longitude": "128.70144117929",
      "category": "ETC",
      "business_hours": "10:30 ~ 22:00",
      "contact": "",
      "description": "",
      "avg_rating": 0.0,
      "created_at": "2024-01-01T00:00:00Z"
    }
  },
  {
    "model": "stores.store",
    "pk": 139,
    "fields": {
      "name": "빵장수꽈배기동대구역점",
      "address": "대구광역시 동구 동대구로 550, 3층 (신암동, 동대구역 동대구역사)",
      "latitude": "35.8794361440597",
      "longitude": "128.628775532684",
      "category": "PASTRY",
      "business_hours": "10:30 ~ 22:00",
      "contact": "",
      "description": "",
      "avg_rating": 0.0,
      "created_at": "2024-01-01T00:00:00Z"
    }
  },
  {
    "model": "stores.store",
    "pk": 140,
    "fields": {
      "name": "미소띤하루",
      "address": "대구광역시 동구 이노밸리로 168, 103호 (각산동, 안심빌딩)",
      "latitude": "35.8784451966479",
      "longitude": "128.715684288524",
      "category": "ETC",
      "business_hours": "10:30 ~ 22:00",
      "contact": "",
      "description": "",
      "avg_rating": 0.0,
      "created_at": "2024-01-01T00:00:00Z"
    }
  },
  {
    "model": "stores.store",
    "pk": 141,
    "fields": {
      "name": "대구농특산물유통대구장터지점",
      "address": "대구광역시 동구 동촌로 73, 1층 (검사동)",
      "latitude": "35.8885382802633",
      "longitude": "128.650675643146",
      "category": "ETC",
      "business_hours": "10:30 ~ 22:00",
      "contact": "",
      "description": "",
      "avg_rating": 0.0,
      "created_at": "2024-01-01T00:00:00Z"
    }
  },
  {
    "model": "stores.store",
    "pk": 142,
    "fields": {
      "name": "정스테라(안심제빵소)",
      "address": "대구광역시 동구 율하동로23길 60, 1층 (율하동)",
      "latitude": "35.8706847302456",
      "longitude": "128.695779164388",
      "category": "PASTRY",
      "business_hours": "10:30 ~ 22:00",
      "contact": "",
      "description": "",
      "avg_rating": 0.0,
      "created_at": "2024-01-01T00:00:00Z"
    }
  },
  {
    "model": "stores.store",
    "pk": 143,
    "fields": {
      "name": "르배",
      "address": "대구광역시 동구 동부로 149, 신세계동대구복합환승센터 지하1층 (신천동)",
      "latitude": "35.8779406718693",
      "longitude": "128.629190024219",
      "category": "ETC",
      "business_hours": "10:30 ~ 22:00",
      "contact": "",
      "description": "",
      "avg_rating": 0.0,
      "created_at": "2024-01-01T00:00:00Z"
    }
  },
  {
    "model": "stores.store",
    "pk": 144,
    "fields": {
      "name": "코스트코홀세일베이커리",
      "address": "대구광역시 동구 첨단로 10, 코스트코 2층 (신서동)",
      "latitude": "35.8770109977102",
      "longitude": "128.730753826462",
      "category": "PASTRY",
      "business_hours": "10:30 ~ 22:00",
      "contact": "",
      "description": "",
      "avg_rating": 0.0,
      "created_at": "2024-01-01T00:00:00Z"
    }
  },
  {
    "model": "stores.store",
    "pk": 145,
    "fields": {
      "name": "마들렌베이커리 봉무점",
      "address": "대구광역시 동구 팔공로51길 31, 1층 108호 (봉무동)",
      "latitude": "35.922857236778",
      "longitude": "128.637719446703",
      "category": "PASTRY",
      "business_hours": "10:30 ~ 22:00",
      "contact": "",
      "description": "",
      "avg_rating": 0.0,
      "created_at": "2024-01-01T00:00:00Z"
    }
  },
  {
    "model": "stores.store",
    "pk": 146,
    "fields": {
      "name": "르브레드랩대구점(신세계)",
      "address": "대구광역시 동구 동부로 149, 신세계동대구복합환승센터 지하1층 (신천동)",
      "latitude": "35.8779406718693",
      "longitude": "128.629190024219",
      "category": "ETC",
      "business_hours": "10:30 ~ 22:00",
      "contact": "",
      "description": "",
      "avg_rating": 0.0,
      "created_at": "2024-01-01T00:00:00Z"
    }
  },
  {
    "model": "stores.store",
    "pk": 147,
    "fields": {
      "name": "룰루스",
      "address": "대구광역시 동구 동부로 149, 신세계동대구복합환승센터 지하1층 (신천동)",
      "latitude": "35.8779406718693",
      "longitude": "128.629190024219",
      "category": "ETC",
      "business_hours": "10:30 ~ 22:00",
      "contact": "",
      "description": "",
      "avg_rating": 0.0,
      "created_at": "2024-01-01T00:00:00Z"
    }
  },
  {
    "model": "stores.store",
    "pk": 148,
    "fields": {
      "name": "빵굽는사람",
      "address": "대구광역시 동구 파계로19길 22, 1층 (지묘동)",
      "latitude": "35.9414188331059",
      "longitude": "128.636201970226",
      "category": "PASTRY",
      "business_hours": "10:30 ~ 22:00",
      "contact": "",
      "description": "",
      "avg_rating": 0.0,
      "created_at": "2024-01-01T00:00:00Z"
    }
  },
  {
    "model": "stores.store",
    "pk": 149,
    "fields": {
      "name": "(주)베이커리룰루스",
      "address": "대구광역시 동구 동부로 149, 신세계동대구복합환승센터 9층 (신천동)",
      "latitude": "35.8779406718693",
      "longitude": "128.629190024219",
      "category": "PASTRY",
      "business_hours": "10:30 ~ 22:00",
      "contact": "",
      "description": "",
      "avg_rating": 0.0,
      "created_at": "2024-01-01T00:00:00Z"
    }
  },
  {
    "model": "stores.store",
    "pk": 150,
    "fields": {
      "name": "달달베이킹",
      "address": "대구광역시 동구 송라로 91, 아네세 2층 (신천동)",
      "latitude": "35.8750349951722",
      "longitude": "128.617058613775",
      "category": "ETC",
      "business_hours": "10:30 ~ 22:00",
      "contact": "",
      "description": "",
      "avg_rating": 0.0,
      "created_at": "2024-01-01T00:00:00Z"
    }
  },
  {
    "model": "stores.store",
    "pk": 151,
    "fields": {
      "name": "구페2018(GOUFFE2018)",
      "address": "대구광역시 동구 안심로 80, 롯데쇼핑프라자 지하1층 (율하동)",
      "latitude": "35.8684630267062",
      "longitude": "128.693330946688",
      "category": "ETC",
      "business_hours": "10:30 ~ 22:00",
      "contact": "",
      "description": "",
      "avg_rating": 0.0,
      "created_at": "2024-01-01T00:00:00Z"
    }
  },
  {
    "model": "stores.store",
    "pk": 152,
    "fields": {
      "name": "필스브레드",
      "address": "대구광역시 동구 동촌로 242, 다산빌딩 1층 103호 (방촌동)",
      "latitude": "35.8808037436002",
      "longitude": "128.66615492949",
      "category": "ETC",
      "business_hours": "10:30 ~ 22:00",
      "contact": "",
      "description": "",
      "avg_rating": 0.0,
      "created_at": "2024-01-01T00:00:00Z"
    }
  },
  {
    "model": "stores.store",
    "pk": 153,
    "fields": {
      "name": "딥딥딥",
      "address": "대구광역시 동구 팔공로32길 21, 1층 (불로동)",
      "latitude": "35.9130019591994",
      "longitude": "128.643296193276",
      "category": "ETC",
      "business_hours": "10:30 ~ 22:00",
      "contact": "",
      "description": "",
      "avg_rating": 0.0,
      "created_at": "2024-01-01T00:00:00Z"
    }
  },
  {
    "model": "stores.store",
    "pk": 154,
    "fields": {
      "name": "(주)신세계푸드 베이커리 반야월점3",
      "address": "대구광역시 동구 안심로 389-2, 이마트 반야월점 1층 (신서동)",
      "latitude": "35.8708526747902",
      "longitude": "128.727433746817",
      "category": "PASTRY",
      "business_hours": "10:30 ~ 22:00",
      "contact": "",
      "description": "",
      "avg_rating": 0.0,
      "created_at": "2024-01-01T00:00:00Z"
    }
  },
  {
    "model": "stores.store",
    "pk": 155,
    "fields": {
      "name": "타르트데이",
      "address": "대구광역시 동구 동부로34길 4, 1층 (신천동)",
      "latitude": "35.8771050366374",
      "longitude": "128.630565259768",
      "category": "ETC",
      "business_hours": "10:30 ~ 22:00",
      "contact": "",
      "description": "",
      "avg_rating": 0.0,
      "created_at": "2024-01-01T00:00:00Z"
    }
  },
  {
    "model": "stores.store",
    "pk": 156,
    "fields": {
      "name": "사마리안제과",
      "address": "대구광역시 동구 팔공산로199길 29, 1층 (용수동)",
      "latitude": "35.9889725981469",
      "longitude": "128.6946408098",
      "category": "ETC",
      "business_hours": "10:30 ~ 22:00",
      "contact": "",
      "description": "",
      "avg_rating": 0.0,
      "created_at": "2024-01-01T00:00:00Z"
    }
  },
  {
    "model": "stores.store",
    "pk": 157,
    "fields": {
      "name": "(주)겐츠신세계백화점대구점",
      "address": "대구광역시 동구 동부로 149, 신세계동대구복합환승센터 지하1층 (신천동)",
      "latitude": "35.8779406718693",
      "longitude": "128.629190024219",
      "category": "ETC",
      "business_hours": "10:30 ~ 22:00",
      "contact": "",
      "description": "",
      "avg_rating": 0.0,
      "created_at": "2024-01-01T00:00:00Z"
    }
  },
  {
    "model": "stores.store",
    "pk": 158,
    "fields": {
      "name": "패트릭스와플",
      "address": "대구광역시 동구 동부로 149, 신세계동대구복합환승센터 8층 (신천동)",
      "latitude": "35.8779406718693",
      "longitude": "128.629190024219",
      "category": "ETC",
      "business_hours": "10:30 ~ 22:00",
      "contact": "",
      "description": "",
      "avg_rating": 0.0,
      "created_at": "2024-01-01T00:00:00Z"
    }
  },
  {
    "model": "stores.store",
    "pk": 159,
    "fields": {
      "name": "디토르테",
      "address": "대구광역시 동구 동대구로83길 8-1, 2층 (신천동)",
      "latitude": null,
      "longitude": null,
      "category": "ETC",
      "business_hours": "10:30 ~ 22:00",
      "contact": "",
      "description": "",
      "avg_rating": 0.0,
      "created_at": "2024-01-01T00:00:00Z"
    }
  },
  {
    "model": "stores.store",
    "pk": 160,
    "fields": {
      "name": "로겐201도",
      "address": "대구광역시 동구 신암로16길 7, 1층 (신암동)",
      "latitude": "35.8779657836448",
      "longitude": "128.609826939447",
      "category": "ETC",
      "business_hours": "10:30 ~ 22:00",
      "contact": "",
      "description": "",
      "avg_rating": 0.0,
      "created_at": "2024-01-01T00:00:00Z"
    }
  },
  {
    "model": "stores.store",
    "pk": 161,
    "fields": {
      "name": "파티쉐이황재",
      "address": "대구광역시 동구 해동로 39, 1층 (지저동)",
      "latitude": "35.8944692587923",
      "longitude": "128.637718606522",
      "category": "ETC",
      "business_hours": "10:30 ~ 22:00",
      "contact": "",
      "description": "",
      "avg_rating": 0.0,
      "created_at": "2024-01-01T00:00:00Z"
    }
  },
  {
    "model": "stores.store",
    "pk": 162,
    "fields": {
      "name": "팔공산빵",
      "address": "대구광역시 동구 팔공로 1015 (백안동)",
      "latitude": "35.9544025748003",
      "longitude": "128.689600469776",
      "category": "PASTRY",
      "business_hours": "10:30 ~ 22:00",
      "contact": "",
      "description": "",
      "avg_rating": 0.0,
      "created_at": "2024-01-01T00:00:00Z"
    }
  },
  {
    "model": "stores.store",
    "pk": 163,
    "fields": {
      "name": "파파쉐프",
      "address": "대구광역시 동구 동북로 500, 603동 1층 116호 (효목동, 태왕메트로시티)",
      "latitude": "35.8793390239392",
      "longitude": "128.63986503947",
      "category": "ETC",
      "business_hours": "10:30 ~ 22:00",
      "contact": "",
      "description": "",
      "avg_rating": 0.0,
      "created_at": "2024-01-01T00:00:00Z"
    }
  },
  {
    "model": "stores.store",
    "pk": 164,
    "fields": {
      "name": "뚜레쥬르연경점",
      "address": "대구광역시 동구 동화천로77길 2, 다올빌딩 1층 (지묘동)",
      "latitude": "35.9420282466754",
      "longitude": "128.630986985871",
      "category": "ETC",
      "business_hours": "10:30 ~ 22:00",
      "contact": "",
      "description": "",
      "avg_rating": 0.0,
      "created_at": "2024-01-01T00:00:00Z"
    }
  },
  {
    "model": "stores.store",
    "pk": 165,
    "fields": {
      "name": "바파바로 카페",
      "address": "대구광역시 동구 동부로 53, 1층 (신천동)",
      "latitude": "35.8751130133923",
      "longitude": "128.618237608051",
      "category": "ETC",
      "business_hours": "10:30 ~ 22:00",
      "contact": "",
      "description": "",
      "avg_rating": 0.0,
      "created_at": "2024-01-01T00:00:00Z"
    }
  },
  {
    "model": "stores.store",
    "pk": 166,
    "fields": {
      "name": "사계절91",
      "address": "대구광역시 동구 동화천로72길 30, 1층 (지묘동)",
      "latitude": "35.9424125142504",
      "longitude": "128.629751319989",
      "category": "ETC",
      "business_hours": "10:30 ~ 22:00",
      "contact": "",
      "description": "",
      "avg_rating": 0.0,
      "created_at": "2024-01-01T00:00:00Z"
    }
  },
  {
    "model": "stores.store",
    "pk": 167,
    "fields": {
      "name": "르배",
      "address": "대구광역시 동구 아양로 218, 303동 306호 (효목동, 진로이스트타운)",
      "latitude": "35.8837586627313",
      "longitude": "128.636521015616",
      "category": "ETC",
      "business_hours": "10:30 ~ 22:00",
      "contact": "",
      "description": "",
      "avg_rating": 0.0,
      "created_at": "2024-01-01T00:00:00Z"
    }
  },
  {
    "model": "stores.store",
    "pk": 168,
    "fields": {
      "name": "옹그릭&복그릭 베이커리",
      "address": "대구광역시 동구 신서로22길 4-4, 1층 (신서동)",
      "latitude": "35.8772566652876",
      "longitude": "128.724576336349",
      "category": "PASTRY",
      "business_hours": "10:30 ~ 22:00",
      "contact": "",
      "description": "",
      "avg_rating": 0.0,
      "created_at": "2024-01-01T00:00:00Z"
    }
  },
  {
    "model": "stores.store",
    "pk": 169,
    "fields": {
      "name": "쉐리체리(cherie cherry)",
      "address": "대구광역시 동구 이노밸리로 166, 1층 102호 (각산동)",
      "latitude": "35.8784874285268",
      "longitude": "128.715314273778",
      "category": "ETC",
      "business_hours": "10:30 ~ 22:00",
      "contact": "",
      "description": "",
      "avg_rating": 0.0,
      "created_at": "2024-01-01T00:00:00Z"
    }
  },
  {
    "model": "stores.store",
    "pk": 170,
    "fields": {
      "name": "명덕 빵앗간",
      "address": "대구광역시 동구 동대구로 503, 1층 (신천동)",
      "latitude": "35.8754605411882",
      "longitude": "128.625094465279",
      "category": "PASTRY",
      "business_hours": "10:30 ~ 22:00",
      "contact": "",
      "description": "",
      "avg_rating": 0.0,
      "created_at": "2024-01-01T00:00:00Z"
    }
  },
  {
    "model": "stores.store",
    "pk": 171,
    "fields": {
      "name": "파리바게뜨(대구공군비행장점)",
      "address": "대구광역시 동구 입석동 361-1 사병/부사관식당 1층",
      "latitude": "35.8980010947422",
      "longitude": "128.658944323512",
      "category": "ETC",
      "business_hours": "10:30 ~ 22:00",
      "contact": "",
      "description": "",
      "avg_rating": 0.0,
      "created_at": "2024-01-01T00:00:00Z"
    }
  },
  {
    "model": "stores.store",
    "pk": 172,
    "fields": {
      "name": "디스코 바나나",
      "address": "대구광역시 동구 이노밸리로36길 14, 1층 103호 (각산동)",
      "latitude": "35.8781426877327",
      "longitude": "128.715652850639",
      "category": "ETC",
      "business_hours": "10:30 ~ 22:00",
      "contact": "",
      "description": "",
      "avg_rating": 0.0,
      "created_at": "2024-01-01T00:00:00Z"
    }
  },
  {
    "model": "stores.store",
    "pk": 173,
    "fields": {
      "name": "유니크플레이스",
      "address": "대구광역시 동구 아양로57길 9, 1층 (지저동)",
      "latitude": "35.8910491197221",
      "longitude": "128.642262700365",
      "category": "ETC",
      "business_hours": "10:30 ~ 22:00",
      "contact": "",
      "description": "",
      "avg_rating": 0.0,
      "created_at": "2024-01-01T00:00:00Z"
    }
  },
  {
    "model": "stores.store",
    "pk": 174,
    "fields": {
      "name": "베이킹25(BAKING 25)",
      "address": "대구광역시 동구 동북로75길 6, 누리안 1층 (신암동)",
      "latitude": "35.8885756548351",
      "longitude": "128.630308991659",
      "category": "ETC",
      "business_hours": "10:30 ~ 22:00",
      "contact": "",
      "description": "",
      "avg_rating": 0.0,
      "created_at": "2024-01-01T00:00:00Z"
    }
  },
  {
    "model": "stores.store",
    "pk": 175,
    "fields": {
      "name": "삼송빵집 이시아폴리스점",
      "address": "대구광역시 동구 팔공로51길 15-6, B동 1층 20호 (봉무동)",
      "latitude": "35.9226170626265",
      "longitude": "128.638982118592",
      "category": "PASTRY",
      "business_hours": "10:30 ~ 22:00",
      "contact": "",
      "description": "",
      "avg_rating": 0.0,
      "created_at": "2024-01-01T00:00:00Z"
    }
  },
  {
    "model": "stores.store",
    "pk": 176,
    "fields": {
      "name": "뚜레쥬르 동대구해모로점",
      "address": "대구광역시 동구 동북로 340, 1201동 1층 117호 (신암동, 동대구 해모로 스퀘어 웨스트)",
      "latitude": "35.8892375924324",
      "longitude": "128.627375424223",
      "category": "ETC",
      "business_hours": "10:30 ~ 22:00",
      "contact": "",
      "description": "",
      "avg_rating": 0.0,
      "created_at": "2024-01-01T00:00:00Z"
    }
  },
  {
    "model": "stores.store",
    "pk": 177,
    "fields": {
      "name": "내집처럼",
      "address": "대구광역시 동구 팔공로91길 26, B동 1층 (지묘동)",
      "latitude": "35.9414956991422",
      "longitude": "128.643390244428",
      "category": "ETC",
      "business_hours": "10:30 ~ 22:00",
      "contact": "",
      "description": "",
      "avg_rating": 0.0,
      "created_at": "2024-01-01T00:00:00Z"
    }
  },
  {
    "model": "stores.store",
    "pk": 178,
    "fields": {
      "name": "파리바게뜨 동대구역화성파크점",
      "address": "대구광역시 동구 동대구로 590, 301동 105호 (신암동, 동대구역화성파크드림아파트)",
      "latitude": "35.8818481221842",
      "longitude": "128.626335709061",
      "category": "ETC",
      "business_hours": "10:30 ~ 22:00",
      "contact": "",
      "description": "",
      "avg_rating": 0.0,
      "created_at": "2024-01-01T00:00:00Z"
    }
  },
  {
    "model": "stores.store",
    "pk": 179,
    "fields": {
      "name": "또르또르",
      "address": "대구광역시 동구 동촌로11길 26-7, 1층 (검사동)",
      "latitude": "35.8886480775687",
      "longitude": "128.651144689123",
      "category": "ETC",
      "business_hours": "10:30 ~ 22:00",
      "contact": "",
      "description": "",
      "avg_rating": 0.0,
      "created_at": "2024-01-01T00:00:00Z"
    }
  },
  {
    "model": "stores.store",
    "pk": 180,
    "fields": {
      "name": "나미제과",
      "address": "대구광역시 동구 방촌로 97-1, 1층 (방촌동)",
      "latitude": "35.8836806701427",
      "longitude": "128.663270610275",
      "category": "ETC",
      "business_hours": "10:30 ~ 22:00",
      "contact": "",
      "description": "",
      "avg_rating": 0.0,
      "created_at": "2024-01-01T00:00:00Z"
    }
  },
  {
    "model": "stores.store",
    "pk": 181,
    "fields": {
      "name": "수형당",
      "address": "대구광역시 동구 동대구로 550, 동대구역 3층 (신암동)",
      "latitude": "35.8794361440597",
      "longitude": "128.628775532684",
      "category": "ETC",
      "business_hours": "10:30 ~ 22:00",
      "contact": "",
      "description": "",
      "avg_rating": 0.0,
      "created_at": "2024-01-01T00:00:00Z"
    }
  },
  {
    "model": "stores.store",
    "pk": 182,
    "fields": {
      "name": "로비라운지(Lobby lounge)",
      "address": "대구광역시 동구 동부로26길 6, 대구 메리어트 호텔 및 서비스드 레지던스 3층 (신천동)",
      "latitude": "35.8752175612884",
      "longitude": "128.627638855379",
      "category": "ETC",
      "business_hours": "10:30 ~ 22:00",
      "contact": "",
      "description": "",
      "avg_rating": 0.0,
      "created_at": "2024-01-01T00:00:00Z"
    }
  },
  {
    "model": "stores.store",
    "pk": 183,
    "fields": {
      "name": "초승달지대",
      "address": "대구광역시 동구 팔공로67길 3, 1층 (봉무동)",
      "latitude": "35.9296985054424",
      "longitude": "128.641019155512",
      "category": "ETC",
      "business_hours": "10:30 ~ 22:00",
      "contact": "",
      "description": "",
      "avg_rating": 0.0,
      "created_at": "2024-01-01T00:00:00Z"
    }
  },
  {
    "model": "stores.store",
    "pk": 184,
    "fields": {
      "name": "뵈르카페",
      "address": "대구광역시 동구 동북로 500, 701동 306호 (효목동, 태왕메트로시티)",
      "latitude": "35.8793390239392",
      "longitude": "128.63986503947",
      "category": "ETC",
      "business_hours": "10:30 ~ 22:00",
      "contact": "",
      "description": "",
      "avg_rating": 0.0,
      "created_at": "2024-01-01T00:00:00Z"
    }
  },
  {
    "model": "stores.store",
    "pk": 185,
    "fields": {
      "name": "구수",
      "address": "대구광역시 동구 동북로75길 29-5, 1층 (신암동)",
      "latitude": "35.8893637869607",
      "longitude": "128.632292350159",
      "category": "ETC",
      "business_hours": "10:30 ~ 22:00",
      "contact": "",
      "description": "",
      "avg_rating": 0.0,
      "created_at": "2024-01-01T00:00:00Z"
    }
  },
  {
    "model": "stores.store",
    "pk": 186,
    "fields": {
      "name": "브릭레드 신암",
      "address": "대구광역시 동구 신암남로15길 51, 1층 (신암동)",
      "latitude": "35.8808185144626",
      "longitude": "128.621802339688",
      "category": "ETC",
      "business_hours": "10:30 ~ 22:00",
      "contact": "",
      "description": "",
      "avg_rating": 0.0,
      "created_at": "2024-01-01T00:00:00Z"
    }
  },
  {
    "model": "stores.store",
    "pk": 187,
    "fields": {
      "name": "굽굽쿠키",
      "address": "대구광역시 동구 효신로5길 73, 1층 (신천동)",
      "latitude": "35.8753487671294",
      "longitude": "128.631165686432",
      "category": "COOKIE",
      "business_hours": "10:30 ~ 22:00",
      "contact": "",
      "description": "",
      "avg_rating": 0.0,
      "created_at": "2024-01-01T00:00:00Z"
    }
  },
  {
    "model": "stores.store",
    "pk": 188,
    "fields": {
      "name": "수작",
      "address": "대구광역시 동구 효목로5길 5, 1층 (효목동)",
      "latitude": "35.8752256967879",
      "longitude": "128.63908635599",
      "category": "ETC",
      "business_hours": "10:30 ~ 22:00",
      "contact": "",
      "description": "",
      "avg_rating": 0.0,
      "created_at": "2024-01-01T00:00:00Z"
    }
  },
  {
    "model": "stores.store",
    "pk": 189,
    "fields": {
      "name": "화이트리에(WHITELIER) 이시아폴리스점",
      "address": "대구광역시 동구 팔공로51길 33, East Apple 1층 A-102호 (봉무동)",
      "latitude": "35.9228461202966",
      "longitude": "128.637133927898",
      "category": "ETC",
      "business_hours": "10:30 ~ 22:00",
      "contact": "",
      "description": "",
      "avg_rating": 0.0,
      "created_at": "2024-01-01T00:00:00Z"
    }
  },
  {
    "model": "stores.store",
    "pk": 190,
    "fields": {
      "name": "모이베이크스(moibakes)",
      "address": "대구광역시 동구 송라로10길 14, 1층 (신천동)",
      "latitude": "35.8724288353562",
      "longitude": "128.620192641629",
      "category": "ETC",
      "business_hours": "10:30 ~ 22:00",
      "contact": "",
      "description": "",
      "avg_rating": 0.0,
      "created_at": "2024-01-01T00:00:00Z"
    }
  },
  {
    "model": "stores.store",
    "pk": 191,
    "fields": {
      "name": "미뉴트빠삐용 대구신세계",
      "address": "대구광역시 동구 동부로 149, 신세계동대구복합환승센터 지하1층 (신천동)",
      "latitude": "35.8779406718693",
      "longitude": "128.629190024219",
      "category": "ETC",
      "business_hours": "10:30 ~ 22:00",
      "contact": "",
      "description": "",
      "avg_rating": 0.0,
      "created_at": "2024-01-01T00:00:00Z"
    }
  },
  {
    "model": "stores.store",
    "pk": 192,
    "fields": {
      "name": "주식회사 쥬노",
      "address": "대구광역시 동구 동부로 149, 신세계동대구복합환승센터 지하1층 (신천동)",
      "latitude": "35.8779406718693",
      "longitude": "128.629190024219",
      "category": "ETC",
      "business_hours": "10:30 ~ 22:00",
      "contact": "",
      "description": "",
      "avg_rating": 0.0,
      "created_at": "2024-01-01T00:00:00Z"
    }
  },
  {
    "model": "stores.store",
    "pk": 193,
    "fields": {
      "name": "오마이럽데이",
      "address": "대구광역시 동구 송라로16길 80, 1층 (신천동)",
      "latitude": "35.8761928406039",
      "longitude": "128.62158523779",
      "category": "ETC",
      "business_hours": "10:30 ~ 22:00",
      "contact": "",
      "description": "",
      "avg_rating": 0.0,
      "created_at": "2024-01-01T00:00:00Z"
    }
  },
  {
    "model": "stores.store",
    "pk": 194,
    "fields": {
      "name": "더플레르케이크",
      "address": "대구광역시 동구 효목로5길 8, 1층 (효목동)",
      "latitude": "35.875512502591",
      "longitude": "128.638956188897",
      "category": "CAKE",
      "business_hours": "10:30 ~ 22:00",
      "contact": "",
      "description": "",
      "avg_rating": 0.0,
      "created_at": "2024-01-01T00:00:00Z"
    }
  },
  {
    "model": "stores.store",
    "pk": 195,
    "fields": {
      "name": "브레드,령",
      "address": "대구광역시 동구 동촌로 100, 401동 1층 101호 (검사동, 태왕아너스 르네상스)",
      "latitude": "35.8860394089961",
      "longitude": "128.651765677038",
      "category": "ETC",
      "business_hours": "10:30 ~ 22:00",
      "contact": "",
      "description": "",
      "avg_rating": 0.0,
      "created_at": "2024-01-01T00:00:00Z"
    }
  },
  {
    "model": "stores.store",
    "pk": 196,
    "fields": {
      "name": "뚜레쥬르 동대구더샵디어엘로점",
      "address": "대구광역시 동구 화랑로 33, 더샵디어엘로 301동 107,108호 (신천동)",
      "latitude": "35.8691595282559",
      "longitude": "128.631394628931",
      "category": "ETC",
      "business_hours": "10:30 ~ 22:00",
      "contact": "",
      "description": "",
      "avg_rating": 0.0,
      "created_at": "2024-01-01T00:00:00Z"
    }
  },
  {
    "model": "stores.store",
    "pk": 197,
    "fields": {
      "name": "순쌀로 명인 제빵소",
      "address": "대구광역시 동구 송라로 65, 3층 (신천동)",
      "latitude": "35.8730037069516",
      "longitude": "128.618218286347",
      "category": "PASTRY",
      "business_hours": "10:30 ~ 22:00",
      "contact": "",
      "description": "",
      "avg_rating": 0.0,
      "created_at": "2024-01-01T00:00:00Z"
    }
  },
  {
    "model": "stores.store",
    "pk": 198,
    "fields": {
      "name": "뚜레쥬르 이시아폴리스점",
      "address": "대구광역시 동구 팔공로51길 31, 1층 105호 (봉무동)",
      "latitude": "35.922857236778",
      "longitude": "128.637719446703",
      "category": "ETC",
      "business_hours": "10:30 ~ 22:00",
      "contact": "",
      "description": "",
      "avg_rating": 0.0,
      "created_at": "2024-01-01T00:00:00Z"
    }
  },
  {
    "model": "stores.store",
    "pk": 199,
    "fields": {
      "name": "무라 베이커리",
      "address": "대구광역시 동구 안심로22길 60-1, 모인프라자 110호 (율하동)",
      "latitude": "35.8626987622673",
      "longitude": "128.698297176129",
      "category": "PASTRY",
      "business_hours": "10:30 ~ 22:00",
      "contact": "",
      "description": "",
      "avg_rating": 0.0,
      "created_at": "2024-01-01T00:00:00Z"
    }
  },
  {
    "model": "stores.store",
    "pk": 200,
    "fields": {
      "name": "또도",
      "address": "대구광역시 동구 신암북로11길 64, 1층 (신암동)",
      "latitude": "35.8900811033896",
      "longitude": "128.620876083829",
      "category": "ETC",
      "business_hours": "10:30 ~ 22:00",
      "contact": "",
      "description": "",
      "avg_rating": 0.0,
      "created_at": "2024-01-01T00:00:00Z"
    }
  },
  {
    "model": "stores.store",
    "pk": 201,
    "fields": {
      "name": "스탠다드 커피 하우스",
      "address": "대구광역시 동구 동부로34길 9, 2층 (신천동)",
      "latitude": "35.8767439282731",
      "longitude": "128.631064637669",
      "category": "ETC",
      "business_hours": "10:30 ~ 22:00",
      "contact": "",
      "description": "",
      "avg_rating": 0.0,
      "created_at": "2024-01-01T00:00:00Z"
    }
  },
  {
    "model": "stores.store",
    "pk": 202,
    "fields": {
      "name": "델야(Delya)",
      "address": "대구광역시 동구 동부로32길 12, 1,2층 (신천동)",
      "latitude": null,
      "longitude": null,
      "category": "ETC",
      "business_hours": "10:30 ~ 22:00",
      "contact": "",
      "description": "",
      "avg_rating": 0.0,
      "created_at": "2024-01-01T00:00:00Z"
    }
  },
  {
    "model": "stores.store",
    "pk": 203,
    "fields": {
      "name": "소니에베이글",
      "address": "대구광역시 동구 과학로6길 23, 1층 (각산동)",
      "latitude": "35.8803973544714",
      "longitude": "128.71907687823",
      "category": "ETC",
      "business_hours": "10:30 ~ 22:00",
      "contact": "",
      "description": "",
      "avg_rating": 0.0,
      "created_at": "2024-01-01T00:00:00Z"
    }
  },
  {
    "model": "stores.store",
    "pk": 204,
    "fields": {
      "name": "래비츠",
      "address": "대구광역시 동구 동부로 149, 신세계동대구복합환승센터 지하1층 (신천동)",
      "latitude": "35.8779406718693",
      "longitude": "128.629190024219",
      "category": "ETC",
      "business_hours": "10:30 ~ 22:00",
      "contact": "",
      "description": "",
      "avg_rating": 0.0,
      "created_at": "2024-01-01T00:00:00Z"
    }
  },
  {
    "model": "stores.store",
    "pk": 205,
    "fields": {
      "name": "올망",
      "address": "대구광역시 동구 동부로 149, 신세계동대구복합환승센터 지하1층 (신천동)",
      "latitude": "35.8779406718693",
      "longitude": "128.629190024219",
      "category": "ETC",
      "business_hours": "10:30 ~ 22:00",
      "contact": "",
      "description": "",
      "avg_rating": 0.0,
      "created_at": "2024-01-01T00:00:00Z"
    }
  },
  {
    "model": "stores.store",
    "pk": 206,
    "fields": {
      "name": "카프리쵸샤",
      "address": "대구광역시 동구 동부로 149, 신세계동대구복합환승센터 지하1층 (신천동)",
      "latitude": "35.8779406718693",
      "longitude": "128.629190024219",
      "category": "ETC",
      "business_hours": "10:30 ~ 22:00",
      "contact": "",
      "description": "",
      "avg_rating": 0.0,
      "created_at": "2024-01-01T00:00:00Z"
    }
  },
  {
    "model": "stores.store",
    "pk": 207,
    "fields": {
      "name": "아르토",
      "address": "대구광역시 동구 동부로 149, 신세계동대구복합환승센터 지하1층 (신천동)",
      "latitude": "35.8779406718693",
      "longitude": "128.629190024219",
      "category": "ETC",
      "business_hours": "10:30 ~ 22:00",
      "contact": "",
      "description": "",
      "avg_rating": 0.0,
      "created_at": "2024-01-01T00:00:00Z"
    }
  },
  {
    "model": "stores.store",
    "pk": 208,
    "fields": {
      "name": "하레하레",
      "address": "대전광역시 서구 둔산로 155, 제상가동 1,2층 (둔산동, 크로바아파트)",
      "latitude": "36.3523934580318",
      "longitude": "127.390987924861",
      "category": "ETC",
      "business_hours": "10:30 ~ 22:00",
      "contact": "042 -483 -1595",
      "description": "",
      "avg_rating": 0.0,
      "created_at": "2024-01-01T00:00:00Z"
    }
  },
  {
    "model": "stores.store",
    "pk": 209,
    "fields": {
      "name": "새로나제과",
      "address": "대전광역시 서구 변동로 66 (변동)",
      "latitude": "36.3249294508853",
      "longitude": "127.380241389502",
      "category": "ETC",
      "business_hours": "10:30 ~ 22:00",
      "contact": "",
      "description": "",
      "avg_rating": 0.0,
      "created_at": "2024-01-01T00:00:00Z"
    }
  },
  {
    "model": "stores.store",
    "pk": 210,
    "fields": {
      "name": "동원제과",
      "address": "대전광역시 서구 도화공원길 28 (도마동,(1층))",
      "latitude": "36.3163973457143",
      "longitude": "127.382391194115",
      "category": "ETC",
      "business_hours": "10:30 ~ 22:00",
      "contact": "",
      "description": "",
      "avg_rating": 0.0,
      "created_at": "2024-01-01T00:00:00Z"
    }
  },
  {
    "model": "stores.store",
    "pk": 211,
    "fields": {
      "name": "파리바게뜨 도마점",
      "address": "대전광역시 서구 배재로 155-7 (도마동,경남@상가 1층 5호)",
      "latitude": "36.322278588146",
      "longitude": "127.36915875208",
      "category": "ETC",
      "business_hours": "10:30 ~ 22:00",
      "contact": "",
      "description": "",
      "avg_rating": 0.0,
      "created_at": "2024-01-01T00:00:00Z"
    }
  },
  {
    "model": "stores.store",
    "pk": 212,
    "fields": {
      "name": "파리바게뜨갈마점",
      "address": "대전광역시 서구 신갈마로127번길 2, 1층 (갈마동)",
      "latitude": "36.3450796364776",
      "longitude": "127.368286506886",
      "category": "ETC",
      "business_hours": "10:30 ~ 22:00",
      "contact": "",
      "description": "",
      "avg_rating": 0.0,
      "created_at": "2024-01-01T00:00:00Z"
    }
  },
  {
    "model": "stores.store",
    "pk": 213,
    "fields": {
      "name": "내가잘가는빵집",
      "address": "대전광역시 서구 신갈마로 153 (갈마동)",
      "latitude": "36.3473732071789",
      "longitude": "127.3681442452",
      "category": "PASTRY",
      "business_hours": "10:30 ~ 22:00",
      "contact": "",
      "description": "",
      "avg_rating": 0.0,
      "created_at": "2024-01-01T00:00:00Z"
    }
  },
  {
    "model": "stores.store",
    "pk": 214,
    "fields": {
      "name": "파리바게뜨둔산점",
      "address": "대전광역시 서구 둔산북로 160 (둔산동)",
      "latitude": "36.355609544089",
      "longitude": "127.390829984526",
      "category": "ETC",
      "business_hours": "10:30 ~ 22:00",
      "contact": "",
      "description": "",
      "avg_rating": 0.0,
      "created_at": "2024-01-01T00:00:00Z"
    }
  },
  {
    "model": "stores.store",
    "pk": 215,
    "fields": {
      "name": "당신을위한빵집",
      "address": "대전광역시 서구 월평북로 11, 1층 주공1단지상가 104호 (월평동, 주공아파트)",
      "latitude": "36.3633920703733",
      "longitude": "127.369534354239",
      "category": "PASTRY",
      "business_hours": "10:30 ~ 22:00",
      "contact": "",
      "description": "",
      "avg_rating": 0.0,
      "created_at": "2024-01-01T00:00:00Z"
    }
  },
  {
    "model": "stores.store",
    "pk": 216,
    "fields": {
      "name": "뚜레쥬르대전내동롯데점",
      "address": "대전광역시 서구 신갈마로 46 (내동,롯데@상가 105,106)",
      "latitude": "36.3393946707503",
      "longitude": "127.367783668294",
      "category": "ETC",
      "business_hours": "10:30 ~ 22:00",
      "contact": "",
      "description": "",
      "avg_rating": 0.0,
      "created_at": "2024-01-01T00:00:00Z"
    }
  },
  {
    "model": "stores.store",
    "pk": 217,
    "fields": {
      "name": "파리바게뜨황실점",
      "address": "대전광역시 서구 청사로 65 (월평동,황실상가 114호)",
      "latitude": "36.3603569964585",
      "longitude": "127.37373917413",
      "category": "ETC",
      "business_hours": "10:30 ~ 22:00",
      "contact": "",
      "description": "",
      "avg_rating": 0.0,
      "created_at": "2024-01-01T00:00:00Z"
    }
  },
  {
    "model": "stores.store",
    "pk": 218,
    "fields": {
      "name": "파리바게뜨정림점",
      "address": "대전광역시 서구 정림로 62 (정림동,1층)",
      "latitude": "36.3058294063189",
      "longitude": "127.365439714348",
      "category": "ETC",
      "business_hours": "10:30 ~ 22:00",
      "contact": "",
      "description": "",
      "avg_rating": 0.0,
      "created_at": "2024-01-01T00:00:00Z"
    }
  },
  {
    "model": "stores.store",
    "pk": 219,
    "fields": {
      "name": "트레이더스베이커리월평점",
      "address": "대전광역시 서구 한밭대로 580, 지하1층 (월평동)",
      "latitude": "36.3577019635918",
      "longitude": "127.362920657362",
      "category": "PASTRY",
      "business_hours": "10:30 ~ 22:00",
      "contact": "",
      "description": "",
      "avg_rating": 0.0,
      "created_at": "2024-01-01T00:00:00Z"
    }
  },
  {
    "model": "stores.store",
    "pk": 220,
    "fields": {
      "name": "파리바게뜨황실점2",
      "address": "대전광역시 서구 청사로 65, 황실타운상가 1층 101호 (월평동, 황실타운)",
      "latitude": "36.3603569964585",
      "longitude": "127.37373917413",
      "category": "ETC",
      "business_hours": "10:30 ~ 22:00",
      "contact": "",
      "description": "",
      "avg_rating": 0.0,
      "created_at": "2024-01-01T00:00:00Z"
    }
  },
  {
    "model": "stores.store",
    "pk": 221,
    "fields": {
      "name": "파리바게뜨둔산둥지점",
      "address": "대전광역시 서구 청사로 254, 1층 103,104호 (둔산동, 둥지@상가)",
      "latitude": "36.3590607260151",
      "longitude": "127.392657078287",
      "category": "ETC",
      "business_hours": "10:30 ~ 22:00",
      "contact": "",
      "description": "",
      "avg_rating": 0.0,
      "created_at": "2024-01-01T00:00:00Z"
    }
  },
  {
    "model": "stores.store",
    "pk": 222,
    "fields": {
      "name": "파리바게뜨만년점",
      "address": "대전광역시 서구 만년로 25, 상가동 1층 105,106호 (만년동, 강변아파트)",
      "latitude": "36.3675910758454",
      "longitude": "127.375606315507",
      "category": "ETC",
      "business_hours": "10:30 ~ 22:00",
      "contact": "",
      "description": "",
      "avg_rating": 0.0,
      "created_at": "2024-01-01T00:00:00Z"
    }
  },
  {
    "model": "stores.store",
    "pk": 223,
    "fields": {
      "name": "파리바게뜨 내동롯데점",
      "address": "대전광역시 서구 신갈마로 51, 104동 지하2층 B210호 (내동, 더리치빌 아파트)",
      "latitude": "36.3386472000832",
      "longitude": "127.366210156023",
      "category": "ETC",
      "business_hours": "10:30 ~ 22:00",
      "contact": "042- 384-0042",
      "description": "",
      "avg_rating": 0.0,
      "created_at": "2024-01-01T00:00:00Z"
    }
  },
  {
    "model": "stores.store",
    "pk": 224,
    "fields": {
      "name": "파리바게뜨가수원점",
      "address": "대전광역시 서구 가수원로 83, 상가동 지하1층 107호 (가수원동, 모아드림아파트)",
      "latitude": "36.3019313393938",
      "longitude": "127.349649968802",
      "category": "ETC",
      "business_hours": "10:30 ~ 22:00",
      "contact": "",
      "description": "",
      "avg_rating": 0.0,
      "created_at": "2024-01-01T00:00:00Z"
    }
  },
  {
    "model": "stores.store",
    "pk": 225,
    "fields": {
      "name": "성심당 롯데대전점1",
      "address": "대전광역시 서구 계룡로 598, 롯데백화점 1층 일부 (괴정동)",
      "latitude": "36.3406861255513",
      "longitude": "127.389548388967",
      "category": "ETC",
      "business_hours": "10:30 ~ 22:00",
      "contact": "",
      "description": "",
      "avg_rating": 0.0,
      "created_at": "2024-01-01T00:00:00Z"
    }
  },
  {
    "model": "stores.store",
    "pk": 226,
    "fields": {
      "name": "파리바게트 둔산3동점",
      "address": "대전광역시 서구 둔산로 212 (둔산동)",
      "latitude": "36.3510367944914",
      "longitude": "127.397418311238",
      "category": "ETC",
      "business_hours": "10:30 ~ 22:00",
      "contact": "042- 482-8290",
      "description": "",
      "avg_rating": 0.0,
      "created_at": "2024-01-01T00:00:00Z"
    }
  },
  {
    "model": "stores.store",
    "pk": 227,
    "fields": {
      "name": "파리바게뜨 대전관저점",
      "address": "대전광역시 서구 관저중로 98, 1층 4,5,16,17,18호 (관저동)",
      "latitude": "36.3009081848511",
      "longitude": "127.335414893413",
      "category": "ETC",
      "business_hours": "10:30 ~ 22:00",
      "contact": "",
      "description": "",
      "avg_rating": 0.0,
      "created_at": "2024-01-01T00:00:00Z"
    }
  },
  {
    "model": "stores.store",
    "pk": 228,
    "fields": {
      "name": "(주)신세계푸드 블랑제리둔산점",
      "address": "대전광역시 서구 둔산북로 41, 1층 (둔산동)",
      "latitude": "36.3563797165041",
      "longitude": "127.377763527367",
      "category": "ETC",
      "business_hours": "10:30 ~ 22:00",
      "contact": "",
      "description": "",
      "avg_rating": 0.0,
      "created_at": "2024-01-01T00:00:00Z"
    }
  },
  {
    "model": "stores.store",
    "pk": 229,
    "fields": {
      "name": "경성베이커리",
      "address": "대전광역시 서구 대덕대로 150 (갈마동,경성쇼핑센타2층)",
      "latitude": "36.3450685550792",
      "longitude": "127.376927442652",
      "category": "PASTRY",
      "business_hours": "10:30 ~ 22:00",
      "contact": "",
      "description": "",
      "avg_rating": 0.0,
      "created_at": "2024-01-01T00:00:00Z"
    }
  },
  {
    "model": "stores.store",
    "pk": 230,
    "fields": {
      "name": "파리바게뜨경성갈마점",
      "address": "대전광역시 서구 대덕대로 150 (갈마동,경성코아 205호)",
      "latitude": "36.3450685550792",
      "longitude": "127.376927442652",
      "category": "ETC",
      "business_hours": "10:30 ~ 22:00",
      "contact": "",
      "description": "",
      "avg_rating": 0.0,
      "created_at": "2024-01-01T00:00:00Z"
    }
  },
  {
    "model": "stores.store",
    "pk": 231,
    "fields": {
      "name": "파리바게뜨탄방점",
      "address": "대전광역시 서구 문정로 134 (탄방동)",
      "latitude": "36.3464807849565",
      "longitude": "127.394244490134",
      "category": "ETC",
      "business_hours": "10:30 ~ 22:00",
      "contact": "",
      "description": "",
      "avg_rating": 0.0,
      "created_at": "2024-01-01T00:00:00Z"
    }
  },
  {
    "model": "stores.store",
    "pk": 232,
    "fields": {
      "name": "파리바게뜨가장점",
      "address": "대전광역시 서구 가장로 100 (가장동,(1층))",
      "latitude": "36.3342657250221",
      "longitude": "127.384949260285",
      "category": "ETC",
      "business_hours": "10:30 ~ 22:00",
      "contact": "",
      "description": "",
      "avg_rating": 0.0,
      "created_at": "2024-01-01T00:00:00Z"
    }
  },
  {
    "model": "stores.store",
    "pk": 233,
    "fields": {
      "name": "브레드하우스빵쟁이",
      "address": "대전광역시 서구 계룡로 353 (갈마동)",
      "latitude": "36.353760464693",
      "longitude": "127.368320597462",
      "category": "PASTRY",
      "business_hours": "10:30 ~ 22:00",
      "contact": "042 -320 -9725",
      "description": "",
      "avg_rating": 0.0,
      "created_at": "2024-01-01T00:00:00Z"
    }
  },
  {
    "model": "stores.store",
    "pk": 234,
    "fields": {
      "name": "파리바게뜨 대전국화동성점",
      "address": "대전광역시 서구 둔산로 201, 상가동 1층 102,103호 (둔산동, 국화아파트)",
      "latitude": "36.3551065166594",
      "longitude": "127.398143110467",
      "category": "ETC",
      "business_hours": "10:30 ~ 22:00",
      "contact": "",
      "description": "",
      "avg_rating": 0.0,
      "created_at": "2024-01-01T00:00:00Z"
    }
  },
  {
    "model": "stores.store",
    "pk": 235,
    "fields": {
      "name": "파리바게뜨 대전도마시장점",
      "address": "대전광역시 서구 도산로 38, 크로바메디컬 102~103호 (도마동)",
      "latitude": "36.3127834131668",
      "longitude": "127.381325184205",
      "category": "ETC",
      "business_hours": "10:30 ~ 22:00",
      "contact": "042 -536 -8201",
      "description": "",
      "avg_rating": 0.0,
      "created_at": "2024-01-01T00:00:00Z"
    }
  },
  {
    "model": "stores.store",
    "pk": 236,
    "fields": {
      "name": "파리바게뜨",
      "address": "대전광역시 서구 대덕대로 244, 건국타워 103,104,105호 (둔산동)",
      "latitude": "36.354516313149",
      "longitude": "127.379966335149",
      "category": "ETC",
      "business_hours": "10:30 ~ 22:00",
      "contact": "042- 483-3157",
      "description": "",
      "avg_rating": 0.0,
      "created_at": "2024-01-01T00:00:00Z"
    }
  },
  {
    "model": "stores.store",
    "pk": 237,
    "fields": {
      "name": "뚜레쥬르 월평다모아점",
      "address": "대전광역시 서구 월평동로 83, 1층 129호130호 (월평동, 다모아아파트상가동)",
      "latitude": "36.3611708878133",
      "longitude": "127.366305404613",
      "category": "ETC",
      "business_hours": "10:30 ~ 22:00",
      "contact": "",
      "description": "",
      "avg_rating": 0.0,
      "created_at": "2024-01-01T00:00:00Z"
    }
  },
  {
    "model": "stores.store",
    "pk": 238,
    "fields": {
      "name": "파리바게뜨 내동벽산",
      "address": "대전광역시 서구 갈마로 262, 501동 1층 111호 (내동)",
      "latitude": "36.3324132494214",
      "longitude": "127.382596531787",
      "category": "ETC",
      "business_hours": "10:30 ~ 22:00",
      "contact": "",
      "description": "",
      "avg_rating": 0.0,
      "created_at": "2024-01-01T00:00:00Z"
    }
  },
  {
    "model": "stores.store",
    "pk": 239,
    "fields": {
      "name": "해피데이명과",
      "address": "대전광역시 서구 문정로90번길 57 (탄방동,105호)",
      "latitude": "36.3441286499954",
      "longitude": "127.388985057036",
      "category": "ETC",
      "business_hours": "10:30 ~ 22:00",
      "contact": "042- 486-1119",
      "description": "",
      "avg_rating": 0.0,
      "created_at": "2024-01-01T00:00:00Z"
    }
  },
  {
    "model": "stores.store",
    "pk": 240,
    "fields": {
      "name": "파리바게뜨 롯데점",
      "address": "대전광역시 서구 계룡로 616 (괴정동,오렌지타운 102호)",
      "latitude": "36.3398204804178",
      "longitude": "127.390645153057",
      "category": "ETC",
      "business_hours": "10:30 ~ 22:00",
      "contact": "042- 524-6408",
      "description": "",
      "avg_rating": 0.0,
      "created_at": "2024-01-01T00:00:00Z"
    }
  },
  {
    "model": "stores.store",
    "pk": 241,
    "fields": {
      "name": "케익파라",
      "address": "대전광역시 서구 도솔로 60 (도마동,1층)",
      "latitude": "36.315968411714",
      "longitude": "127.373575719603",
      "category": "CAKE",
      "business_hours": "10:30 ~ 22:00",
      "contact": "",
      "description": "",
      "avg_rating": 0.0,
      "created_at": "2024-01-01T00:00:00Z"
    }
  },